[{"siteName":"Washtucna Elementary/Highschool","siteStatus":"Open","siteState":"WA","siteAddress":"730 Booth Ave, Washtucna, WA ","siteZip":"","daysofOperation":"M,T,W,TH","lunchTime":"10:45 a.m. to 11: 45 a.m","_geoloc":{}},{"siteName":"Wahitis Elementary School","siteStatus":"Open","siteState":"WA","siteAddress":"905 14th Ave, Othello, WA 99344","siteZip":"99344","daysofOperation":"M,T,W,TH","lunchTime":"11:00 a.m to 12:30 p.m","_geoloc":{"lat":46.8187381,"lng":-119.1545548}},{"siteName":"Hiawatha Elementary School","siteStatus":"Open","siteState":"WA","siteAddress":"506 7th Ave, Othello, WA ","siteZip":"","daysofOperation":"M,T,W,TH","lunchTime":"11:00 a.m to 12:30 p.m","_geoloc":{}},{"siteName":"Othello High School","siteStatus":"Open","siteState":"WA","siteAddress":"340 7th Ave, Othello, WA ","siteZip":"","daysofOperation":"M,T,W,TH","lunchTime":"11:00 a.m to 12:30 p.m","_geoloc":{}},{"siteName":"Grantham Elementary","siteStatus":"Open","siteState":"WA","siteAddress":"1253 Poplar St, Clarkston, WA 99403","siteZip":"99403","daysofOperation":"M,T,W,TH","lunchTime":"7:30-9:00 a.m. and 11:30-12:30 p.m","_geoloc":{"lat":46.4181089,"lng":-117.0556495}},{"siteName":"Clarkston High School","siteStatus":"Open","siteState":"WA","siteAddress":"401 Chestnut St, Clarkston, WA 99403","siteZip":"99403","daysofOperation":"M,T,W,TH","lunchTime":"7:30-9:00 a.m. and 11:30-12:30 p.m","_geoloc":{"lat":46.4108623,"lng":-117.0534106}},{"siteName":"Badger Mountain Elementary – front door loop","siteStatus":"Open","siteState":"WA","siteAddress":"1515 Elementary St, Richland, WA 99352","siteZip":"99352","daysofOperation":"M,T,W,TH","lunchTime":"10:45am – 12:15pm","_geoloc":{"lat":46.2725603,"lng":-119.2959368}},{"siteName":"Jason Lee Elementary – front door loop","siteStatus":"Open","siteState":"WA","siteAddress":"1750 McMurray Ave, Richland, WA 99354","siteZip":"99354","daysofOperation":"M,T,W,TH","lunchTime":"10:45am – 12:15pm","_geoloc":{"lat":46.3002803,"lng":-119.2784764}},{"siteName":"Jefferson Elementary – back door drop off loop","siteStatus":"Open","siteState":"WA","siteAddress":"1550 George Washington Way, Richland, WA ","siteZip":"","daysofOperation":"M,T,W,TH","lunchTime":"10:45am – 12:15pm","_geoloc":{"lat":46.308757,"lng":-119.2737108}},{"siteName":"Lewis & Clark Elementary – back door drop off loop","siteStatus":"Open","siteState":"WA","siteAddress":"415 Jadwin Ave, Richland, WA ","siteZip":"","daysofOperation":"M,T,W,TH","lunchTime":"10:45am – 12:15pm","_geoloc":{"lat":46.28382819999999,"lng":-119.2771988}},{"siteName":"Marcus Whitman Elementary – front door loop","siteStatus":"Open","siteState":"WA","siteAddress":"1704 Gray St, Richland, WA 99352","siteZip":"99352","daysofOperation":"M,T,W,TH","lunchTime":"10:45am – 12:15pm","_geoloc":{"lat":46.2724865,"lng":-119.2953511}},{"siteName":"Orchard Elementary – front door loop","siteStatus":"Open","siteState":"WA","siteAddress":"1600 Gala Way, Richland, WA 99352","siteZip":"99352","daysofOperation":"M,T,W,TH","lunchTime":"10:45am – 12:15pm","_geoloc":{"lat":46.231602,"lng":-119.2916375}},{"siteName":"Sacajawea Elementary – back bus loop off Catskill","siteStatus":"Open","siteState":"WA","siteAddress":"535 Fuller St, Richland, WA 99354","siteZip":"99354","daysofOperation":"M,T,W,TH","lunchTime":"10:45am – 12:15pm","_geoloc":{"lat":46.3087524,"lng":-119.2767932}},{"siteName":"Tapteal Elementary – side bus loop","siteStatus":"Open","siteState":"WA","siteAddress":"2100 Sunshine Ave, Richland, WA 99353","siteZip":"99353","daysofOperation":"M,T,W,TH","lunchTime":"10:45am – 12:15pm","_geoloc":{"lat":46.2849251,"lng":-119.3702308}},{"siteName":"White Bluffs Elementary – back door bus loop","siteStatus":"Open","siteState":"WA","siteAddress":"1250 Kensington Way, Richland, WA 99352","siteZip":"99352","daysofOperation":"M,T,W,TH","lunchTime":"10:45am – 12:15pm","_geoloc":{"lat":46.2507333,"lng":-119.3246418}},{"siteName":"William Wiley Elementary – front drop off loop","siteStatus":"Open","siteState":"WA","siteAddress":"2820 Highland Blvd, Richland, WA 99353","siteZip":"99353","daysofOperation":"M,T,W,TH","lunchTime":"10:45am – 12:15pm","_geoloc":{"lat":46.2748759,"lng":-119.3573736}},{"siteName":"Chief Joseph Middle School – bus loop on Jadwin Ave","siteStatus":"Open","siteState":"WA","siteAddress":"504 Wilson St, Richland, WA 99352","siteZip":"99352","daysofOperation":"M,T,W,TH","lunchTime":"10:45am – 12:15pm","_geoloc":{"lat":46.2790139,"lng":-119.283052}},{"siteName":"Enterprise Middle School – front door loop","siteStatus":"Open","siteState":"WA","siteAddress":"5200 Paradise Way, Richland, WA 99353","siteZip":"99353","daysofOperation":"M,T,W,TH","lunchTime":"10:45am – 12:15pm","_geoloc":{"lat":46.2860974,"lng":-119.3635794}},{"siteName":"Leona Libby Middle School – side door bus loop","siteStatus":"Open","siteState":"WA","siteAddress":"3259 Belmont Blvd, Richland, WA 99353","siteZip":"99353","daysofOperation":"M,T,W,TH","lunchTime":"10:45am – 12:15pm","_geoloc":{"lat":46.2827938,"lng":-119.367823}},{"siteName":"Hanford High School – front door loop","siteStatus":"Open","siteState":"WA","siteAddress":"450 Hanford St, Richland, WA ","siteZip":"","daysofOperation":"M,T,W,TH","lunchTime":"10:45am – 12:15pm","_geoloc":{"lat":46.5506839,"lng":-119.4889741}},{"siteName":"Richland High School – drop off loop on Thayer Avenue","siteStatus":"Open","siteState":"WA","siteAddress":"930 Long Ave, Richland, WA ","siteZip":"","daysofOperation":"M,T,W,TH","lunchTime":"10:45am – 12:15pm","_geoloc":{"lat":46.2820945,"lng":-119.2862685}},{"siteName":"Amistad Elementary School","siteStatus":"Open","siteState":"WA","siteAddress":"123 Kent St, Kennewick, WA 99336","siteZip":"99336","daysofOperation":"M,T,W,TH","lunchTime":"11am – 12:30pm","_geoloc":{"lat":46.2108778,"lng":-119.1332927}},{"siteName":"Amon Creek Elementary School","siteStatus":"Open","siteState":"WA","siteAddress":"18 Center Pkwy, Kennewick, WA 99336","siteZip":"99336","daysofOperation":"M,T,W,TH","lunchTime":"11am – 12:30pm","_geoloc":{"lat":46.2185023,"lng":-119.2164359}},{"siteName":"Canyon View Elementary School","siteStatus":"Open","siteState":"WA","siteAddress":"1229 22nd Pl, Kennewick, WA ","siteZip":"","daysofOperation":"M,T,W,TH","lunchTime":"11am – 12:30pm","_geoloc":{}},{"siteName":"Eastgate Elementary School","siteStatus":"Open","siteState":"WA","siteAddress":"910 10th Ave, Kennewick, WA ","siteZip":"","daysofOperation":"M,T,W,TH","lunchTime":"11am – 12:30pm","_geoloc":{"lat":46.19943,"lng":-119.1872021}},{"siteName":"Lincoln Elementary School","siteStatus":"Open","siteState":"WA","siteAddress":"4901 20th Ave, Kennewick, WA ","siteZip":"","daysofOperation":"M,T,W,TH","lunchTime":"11am – 12:30pm","_geoloc":{"lat":46.18982889999999,"lng":-119.1717695}},{"siteName":"Park Middle School","siteStatus":"Open","siteState":"WA","siteAddress":"1011 10th Ave, Kennewick, WA ","siteZip":"","daysofOperation":"M,T,W,TH","lunchTime":"11am – 12:30pm","_geoloc":{"lat":46.19943,"lng":-119.1872021}},{"siteName":"Ridge View Elementary School","siteStatus":"Open","siteState":"WA","siteAddress":"7001 13th Ave, Kennewick, WA ","siteZip":"","daysofOperation":"M,T,W,TH","lunchTime":"11am – 12:30pm","_geoloc":{"lat":46.1957702,"lng":-119.1484128}},{"siteName":"Southgate Elementary School","siteStatus":"Open","siteState":"WA","siteAddress":"3121 19th Ave, Kennewick, WA ","siteZip":"","daysofOperation":"M,T,W,TH","lunchTime":"11am – 12:30pm","_geoloc":{"lat":46.1912428,"lng":-119.1590047}},{"siteName":"Keene-Riverview Elementary School (bus loading zone-drive thru style)","siteStatus":"Open","siteState":"WA","siteAddress":"832 Park Ave, Prosser, WA 99350","siteZip":"99350","daysofOperation":"M,T,W,TH,F","lunchTime":"11:00 a.m. – 12:30 p.m.","_geoloc":{"lat":46.2043998,"lng":-119.764251}},{"siteName":"Housel Middle School (meals will be located in the parking lot near the north gym)","siteStatus":"Open","siteState":"WA","siteAddress":"2001 Highland Dr, Prosser, WA 99350","siteZip":"99350","daysofOperation":"M,T,W,TH,F","lunchTime":"11:00 a.m. – 12:30 p.m.","_geoloc":{"lat":46.2094143,"lng":-119.7538251}},{"siteName":"Whitstran Elementary School (Drive thru)","siteStatus":"Open","siteState":"WA","siteAddress":"10201 Foisy Rd, Prosser, WA ","siteZip":"","daysofOperation":"M,T,W,TH,F","lunchTime":"11:00 a.m. – 12:30 p.m.","_geoloc":{"lat":46.2356983,"lng":-119.7124444}},{"siteName":"Beaver Valley School, Plain","siteStatus":"Open","siteState":"WA","siteAddress":"19265 Beaver Valley Rd, Cascade, WA 98826","siteZip":"98826","daysofOperation":"M,T,W,TH","lunchTime":"8:45-9:45 am","_geoloc":{"lat":47.769853,"lng":-120.6652289}},{"siteName":"Blewett Fire Station, Blewett (Valley Hi)","siteStatus":"Open","siteState":"WA","siteAddress":"228 Chumstick Hwy, Cascade, WA 98826","siteZip":"98826","daysofOperation":"M,T,W,TH","lunchTime":"8:40-9:40 am","_geoloc":{"lat":47.6881774,"lng":-120.6392568}},{"siteName":"Cascade High School","siteStatus":"Open","siteState":"WA","siteAddress":"10190 Chumstick Hwy, Cascade, WA 98826","siteZip":"98826","daysofOperation":"M,T,W,TH","lunchTime":"8:15-9:15 am","_geoloc":{"lat":47.6881774,"lng":-120.6392568}},{"siteName":"Dryden Softball Field Park","siteStatus":"Open","siteState":"WA","siteAddress":"300 Enchantment Park Way, Cascade, WA 98826","siteZip":"98826","daysofOperation":"M,T,W,TH","lunchTime":"8:50-9:50 am","_geoloc":{"lat":47.5882514,"lng":-120.6681496}},{"siteName":"Nason Creek Rest area, Merritt","siteStatus":"Open","siteState":"WA","siteAddress":"undefined US undefined, Cascade, WA undefined","siteZip":"","daysofOperation":"M,T,W,TH","lunchTime":"8:45 – 9:45 am","_geoloc":{}},{"siteName":"Peshastin-Dryden Elementary School","siteStatus":"Open","siteState":"WA","siteAddress":"10001 School St, Cascade, WA 99337","siteZip":"99337","daysofOperation":"M,T,W,TH","lunchTime":"8:30-9:30 am","_geoloc":{"lat":46.1721306,"lng":-119.1262215}},{"siteName":"Morgen Owings Elementary School","siteStatus":"Open","siteState":"WA","siteAddress":"407 Woodin Ave, Lake Chelan, WA ","siteZip":"","daysofOperation":"M,T,W,TH","lunchTime":"10:30 – 12:30 p.m","_geoloc":{"lat":47.8351804,"lng":-120.0466282}},{"siteName":"Chelan Middle School","siteStatus":"Open","siteState":"WA","siteAddress":"215 Webster Ave, Lake Chelan, WA 98816","siteZip":"98816","daysofOperation":"M,T,W,TH","lunchTime":"10:30 – 12:30 p.m","_geoloc":{"lat":47.8358371,"lng":-120.0202339}},{"siteName":"Columbia Elementary School","siteStatus":"Open","siteState":"WA","siteAddress":"600 Alaska St, Wenatchee, WA 98801","siteZip":"98801","daysofOperation":"M,T,W,TH","lunchTime":"11am – 1pm","_geoloc":{"lat":47.4184365,"lng":-120.3195727}},{"siteName":"Lewis & Clark Elementary School","siteStatus":"Open","siteState":"WA","siteAddress":"1130 Princeton Ave, Wenatchee, WA 98801","siteZip":"98801","daysofOperation":"M,T,W,TH","lunchTime":"11 am – 1 pm","_geoloc":{"lat":47.4333438,"lng":-120.3298632}},{"siteName":"Lincoln Elementary School","siteStatus":"Open","siteState":"WA","siteAddress":"1224 Methow St, Wenatchee, WA 98801","siteZip":"98801","daysofOperation":"M,T,W,TH","lunchTime":"11 am – 1 pm","_geoloc":{"lat":47.4096334,"lng":-120.3084217}},{"siteName":"Mission View Elementary School","siteStatus":"Open","siteState":"WA","siteAddress":"60 Terminal Ave, Wenatchee, WA 98801","siteZip":"98801","daysofOperation":"M,T,W,TH","lunchTime":"11 am – 1 pm","_geoloc":{"lat":47.3976743,"lng":-120.3030723}},{"siteName":"Newbery Elementary School","siteStatus":"Open","siteState":"WA","siteAddress":"850 Western Ave, Wenatchee, WA 98801","siteZip":"98801","daysofOperation":"M,T,W,TH","lunchTime":"11 am – 1 pm","_geoloc":{"lat":47.4437371,"lng":-120.353407}},{"siteName":"Sunnyslope Elementary School","siteStatus":"Open","siteState":"WA","siteAddress":"3109 School St, Wenatchee, WA 98801","siteZip":"98801","daysofOperation":"M,T,W,TH","lunchTime":"11 am – 1 pm","_geoloc":{"lat":47.4213894,"lng":-120.3362828}},{"siteName":"Washington Elementary School","siteStatus":"Open","siteState":"WA","siteAddress":"1401 Washington St, Wenatchee, WA 98801","siteZip":"98801","daysofOperation":"M,T,W,TH","lunchTime":"11 am – 1 pm","_geoloc":{"lat":47.4234599,"lng":-120.3103494}},{"siteName":"Foothills Middle School","siteStatus":"Open","siteState":"WA","siteAddress":"1410 Maple St, Wenatchee, WA 98801","siteZip":"98801","daysofOperation":"M,T,W,TH","lunchTime":"11 am – 1 pm","_geoloc":{"lat":47.44244250000001,"lng":-120.340858}},{"siteName":"Pioneer Middle School","siteStatus":"Open","siteState":"WA","siteAddress":"1620 Russell St, Wenatchee, WA 98801","siteZip":"98801","daysofOperation":"M,T,W,TH","lunchTime":"11 am – 1 pm","_geoloc":{"lat":47.4115821,"lng":-120.3192763}},{"siteName":"Wenatchee High School","siteStatus":"Open","siteState":"WA","siteAddress":"1101 Millerdale Ave, Wenatchee, WA 98801","siteZip":"98801","daysofOperation":"M,T,W,TH","lunchTime":"11 am – 1 pm","_geoloc":{"lat":47.4117288,"lng":-120.3321847}},{"siteName":"Dry Creek Elementary School (bus loading zone past the main parking lot)","siteStatus":"Open","siteState":"WA","siteAddress":"25 Rife Rd, Port Angeles, WA 98363","siteZip":"98363","daysofOperation":"M,T,W,TH","lunchTime":"11:30am – 12:15pm","_geoloc":{"lat":48.115471,"lng":-123.5364401}},{"siteName":"Hamilton Elementary-Pick up in the front of the school on 8th Street.","siteStatus":"Open","siteState":"WA","siteAddress":"1822 7th St, Port Angeles, WA ","siteZip":"","daysofOperation":"M,T,W,TH","lunchTime":"11:30am – 12:15pm","_geoloc":{"lat":48.122207,"lng":-123.4588502}},{"siteName":"Jefferson Elementary-pick up in the bus loop off of Chase Rd.","siteStatus":"Open","siteState":"WA","siteAddress":"218 12th St, Port Angeles, WA ","siteZip":"","daysofOperation":"M,T,W,TH","lunchTime":"11:30am – 12:15pm","_geoloc":{"lat":48.1192253,"lng":-123.4661839}},{"siteName":"Franklin Elementary-pick up in front of the school on Washington.","siteStatus":"Open","siteState":"WA","siteAddress":"2505 Washington St, Port Angeles, WA ","siteZip":"","daysofOperation":"M,T,W,TH","lunchTime":"11:30am – 12:15pm","_geoloc":{"lat":48.118146,"lng":-123.4307413}},{"siteName":"Roosevelt Elementary– pick up in the front of the school office.","siteStatus":"Open","siteState":"WA","siteAddress":"106 Monroe Rd, Port Angeles, WA 98362","siteZip":"98362","daysofOperation":"M,T,W,TH","lunchTime":"11:30am – 12:15pm","_geoloc":{"lat":48.0854255,"lng":-123.3925671}},{"siteName":"Lincoln High School-pick up entrance off of B Street.","siteStatus":"Open","siteState":"WA","siteAddress":"924 9th St, Port Angeles, WA ","siteZip":"","daysofOperation":"M,T,W,TH","lunchTime":"11:30am – 12:15pm","_geoloc":{}},{"siteName":"Stevens Middle School-pick up in front of the school off of 14th Street","siteStatus":"Open","siteState":"WA","siteAddress":"1139 14th St, Port Angeles, WA ","siteZip":"","daysofOperation":"M,T,W,TH","lunchTime":"11:30am – 12:15pm","_geoloc":{"lat":48.1199325,"lng":-123.4736669}},{"siteName":"Lower Elwha Tribal Center– pick up in the front parking lot.","siteStatus":"Open","siteState":"WA","siteAddress":"2851 Lower Elwha Rd, Port Angeles, WA ","siteZip":"","daysofOperation":"M,T,W,TH","lunchTime":"11:30am – 12:15pm","_geoloc":{}},{"siteName":"Deer Park Cinema-pick up in the front parking lot.","siteStatus":"Open","siteState":"WA","siteAddress":"96 Deer Park Ln, Port Angeles, WA ","siteZip":"","daysofOperation":"M,T,W,TH","lunchTime":"11:30am – 12:15pm","_geoloc":{"lat":48.0162875,"lng":-123.3203799}},{"siteName":"Gravel pit at corner of Place and Ranger Roads","siteStatus":"Open","siteState":"WA","siteAddress":"143 Gravel Pit Rd, Port Angeles, WA 98362","siteZip":"98362","daysofOperation":"M,T,W,TH","lunchTime":"11:30am – 12:15pm","_geoloc":{"lat":48.0938925,"lng":-123.3664891}},{"siteName":"Forks High School","siteStatus":"Open","siteState":"WA","siteAddress":"261 Spartan Ave, Quillayute Valley, WA 98331","siteZip":"98331","daysofOperation":"M,T,W,TH","lunchTime":"10:30am – 11:30am","_geoloc":{"lat":47.946577,"lng":-124.383954}},{"siteName":"Greywolf Elementary School front entrance","siteStatus":"Open","siteState":"WA","siteAddress":"171 Carlsborg Rd, Sequim, WA ","siteZip":"","daysofOperation":"M,T,W,TH","lunchTime":"11:30-12:30pm","_geoloc":{}},{"siteName":"Sequim Middle School side entrance of the cafeteria, 11:30-12:30pm","siteStatus":"Open","siteState":"WA","siteAddress":"301 Hendrickson Rd, Sequim, WA ","siteZip":"","daysofOperation":"M,T,W,TH","lunchTime":"11:30-12:30pm","_geoloc":{"lat":48.0869795,"lng":-123.1244384}},{"siteName":"Elk Creek Apartments","siteStatus":"Open","siteState":"WA","siteAddress":"90 Rhodefer Rd, Sequim, WA 98382","siteZip":"98382","daysofOperation":"M,T,W,TH","lunchTime":"12-1pm","_geoloc":{"lat":48.073104,"lng":-123.082307}},{"siteName":"Seabreeze Apartments","siteStatus":"Open","siteState":"WA","siteAddress":"525 McCurdy Rd, Sequim, WA 98382","siteZip":"98382","daysofOperation":"M,T,W,TH","lunchTime":"12-1pm","_geoloc":{"lat":48.07239500000001,"lng":-123.1152319}},{"siteName":"Boys and Girls Club","siteStatus":"Open","siteState":"WA","siteAddress":"400 Fir St, Sequim, WA 98382","siteZip":"98382","daysofOperation":"M,T,W,TH","lunchTime":"12-1pm","_geoloc":{"lat":48.083268,"lng":-123.0948449}},{"siteName":"Amboy Middle School","siteStatus":"Open","siteState":"WA","siteAddress":"22115 Chelatchie Rd, Battle Ground, WA ","siteZip":"","daysofOperation":"M,T,W,TH","lunchTime":"11am – 12:00pm","_geoloc":{"lat":45.7807959,"lng":-122.5477298}},{"siteName":"Battle Ground High School","siteStatus":"Open","siteState":"WA","siteAddress":"300 Main St, Battle Ground, WA ","siteZip":"","daysofOperation":"M,T,W,TH","lunchTime":"11am – 12:00pm","_geoloc":{"lat":45.7807959,"lng":-122.5477298}},{"siteName":"Captain Strong Primary","siteStatus":"Open","siteState":"WA","siteAddress":"1002 6th Ave, Battle Ground, WA 98604","siteZip":"98604","daysofOperation":"M,T,W,TH","lunchTime":"11am – 12:00pm","_geoloc":{"lat":45.7851996,"lng":-122.528684}},{"siteName":"Daybreak Primary","siteStatus":"Open","siteState":"WA","siteAddress":"1900 20th Ave, Battle Ground, WA ","siteZip":"","daysofOperation":"M,T,W,TH","lunchTime":"11am – 12:00pm","_geoloc":{}},{"siteName":"Glenwood Heights Primary","siteStatus":"Open","siteState":"WA","siteAddress":"9716 134th St, Battle Ground, WA 98604","siteZip":"98604","daysofOperation":"M,T,W,TH","lunchTime":"11am – 12:00pm","_geoloc":{"lat":45.8054084,"lng":-122.534674}},{"siteName":"Maple Grove Primary","siteStatus":"Open","siteState":"WA","siteAddress":"610 B SW Eaton Blvd, Battle Ground, WA 98604","siteZip":"98604","daysofOperation":"M,T,W,TH","lunchTime":"11am – 12:00pm","_geoloc":{"lat":45.7678161,"lng":-122.5437868}},{"siteName":"Pleasant Valley Primary","siteStatus":"Open","siteState":"WA","siteAddress":"14320 50th Ave, Battle Ground, WA ","siteZip":"","daysofOperation":"M,T,W,TH","lunchTime":"11am – 12:00pm","_geoloc":{"lat":45.7402036,"lng":-122.6205505}},{"siteName":"Prairie High School","siteStatus":"Open","siteState":"WA","siteAddress":"11311 119th St, Battle Ground, WA 98604","siteZip":"98604","daysofOperation":"M,T,W,TH","lunchTime":"11am – 12:00pm","_geoloc":{"lat":45.7588818,"lng":-122.5509876}},{"siteName":"Tukes Valley Primary","siteStatus":"Open","siteState":"WA","siteAddress":"20601 167th Ave, Battle Ground, WA ","siteZip":"","daysofOperation":"M,T,W,TH","lunchTime":"11am – 12:00pm","_geoloc":{"lat":45.7726479,"lng":-122.5007928}},{"siteName":"Yacolt Primary","siteStatus":"Open","siteState":"WA","siteAddress":"406 Yacolt Rd, Battle Ground, WA 98675","siteZip":"98675","daysofOperation":"M,T,W,TH","lunchTime":"11am – 12:00pm","_geoloc":{"lat":45.8667796,"lng":-122.4077176}},{"siteName":"Burton Elementary","siteStatus":"Open","siteState":"WA","siteAddress":"14015 28th St, Evergreen, WA 98682","siteZip":"98682","daysofOperation":"M,T,W,TH","lunchTime":"9:00am – 11:00am","_geoloc":{"lat":45.6401615,"lng":-122.5327839}},{"siteName":"Cascade Middle School","siteStatus":"Open","siteState":"WA","siteAddress":"13900 18th St, Evergreen, WA 98684","siteZip":"98684","daysofOperation":"M,T,W,TH","lunchTime":"9:00am – 11:00am","_geoloc":{"lat":45.6362994,"lng":-122.5260544}},{"siteName":"Covington Middle School","siteStatus":"Open","siteState":"WA","siteAddress":"11200 Rosewood Ave, Evergreen, WA 98662","siteZip":"98662","daysofOperation":"M,T,W,TH","lunchTime":"9:00am – 11:00am","_geoloc":{"lat":45.668534,"lng":-122.5600766}},{"siteName":"Crestline Elementary","siteStatus":"Open","siteState":"WA","siteAddress":"13003 7th St, Evergreen, WA 98405","siteZip":"98405","daysofOperation":"M,T,W,TH","lunchTime":"9:00am – 11:00am","_geoloc":{"lat":47.254791,"lng":-122.4638122}},{"siteName":"Ellsworth Elementary","siteStatus":"Open","siteState":"WA","siteAddress":"512 Ellsworth Rd, Evergreen, WA 98664","siteZip":"98664","daysofOperation":"M,T,W,TH","lunchTime":"9:00am – 11:00am","_geoloc":{"lat":45.6173769,"lng":-122.5620711}},{"siteName":"Hearthwood Elementary","siteStatus":"Open","siteState":"WA","siteAddress":"801 Hearthwood Blvd, Evergreen, WA 98684","siteZip":"98684","daysofOperation":"M,T,W,TH","lunchTime":"9:00am – 11:00am","_geoloc":{"lat":45.6269536,"lng":-122.5265244}},{"siteName":"Heritage High School","siteStatus":"Open","siteState":"WA","siteAddress":"7825 130th Ave, Evergreen, WA 98034","siteZip":"98034","daysofOperation":"M,T,W,TH","lunchTime":"9:00am – 11:00am","_geoloc":{"lat":47.71611679999999,"lng":-122.1765109}},{"siteName":"Mill Plain Elementary","siteStatus":"Open","siteState":"WA","siteAddress":"400 164th Ave, Evergreen, WA 98683","siteZip":"98683","daysofOperation":"M,T,W,TH","lunchTime":"9:00am – 11:00am","_geoloc":{"lat":45.6022976,"lng":-122.5049919}},{"siteName":"Silver Star Elementary","siteStatus":"Open","siteState":"WA","siteAddress":"10500 86th St, Evergreen, WA ","siteZip":"","daysofOperation":"M,T,W,TH","lunchTime":"9:00am – 11:00am","_geoloc":{"lat":39.913564,"lng":-86.13924200000001}},{"siteName":"Burnt Bridge Creek Elementary","siteStatus":"Open","siteState":"WA","siteAddress":"14619 49th St, Evergreen, WA 98682","siteZip":"98682","daysofOperation":"M,T,W,TH","lunchTime":"9:00am – 10:00am","_geoloc":{"lat":45.6573451,"lng":-122.5223931}},{"siteName":"HeLa High School","siteStatus":"Open","siteState":"WA","siteAddress":"1905 9th St, Evergreen, WA ","siteZip":"","daysofOperation":"M,T,W,TH","lunchTime":"9:00am – 10:00am","_geoloc":{"lat":45.6283878,"lng":-122.5338398}},{"siteName":"Image Elementary","siteStatus":"Open","siteState":"WA","siteAddress":"4400 122nd Ave, Evergreen, WA 98033","siteZip":"98033","daysofOperation":"M,T,W,TH","lunchTime":"9:00am – 10:00am","_geoloc":{"lat":47.6803198,"lng":-122.1775006}},{"siteName":"Marrion Elementary","siteStatus":"Open","siteState":"WA","siteAddress":"10119 14th St, Evergreen, WA 98502","siteZip":"98502","daysofOperation":"M,T,W,TH","lunchTime":"9:00am – 10:00am","_geoloc":{"lat":47.05792899999999,"lng":-122.941792}},{"siteName":"Columbia Valley Elementary","siteStatus":"Open","siteState":"WA","siteAddress":"17500 Sequoia Cir, Evergreen, WA 98683","siteZip":"98683","daysofOperation":"M,T,W,TH","lunchTime":"9:00am – 10:00am","_geoloc":{"lat":45.6125136,"lng":-122.4922374}},{"siteName":"Endeavour Elementary","siteStatus":"Open","siteState":"WA","siteAddress":"2701 Four Seasons Ln, Evergreen, WA 98684","siteZip":"98684","daysofOperation":"M,T,W,TH","lunchTime":"9:00am – 10:00am","_geoloc":{"lat":45.6405606,"lng":-122.5533347}},{"siteName":"Fircrest Elementary","siteStatus":"Open","siteState":"WA","siteAddress":"12001 9th St, Evergreen, WA ","siteZip":"","daysofOperation":"M,T,W,TH","lunchTime":"9:00am – 10:00am","_geoloc":{"lat":45.6283878,"lng":-122.5338398}},{"siteName":"Fisher’s Landing Elementary","siteStatus":"Open","siteState":"WA","siteAddress":"3800 Hiddenbrook Dr, Evergreen, WA 98683","siteZip":"98683","daysofOperation":"M,T,W,TH","lunchTime":"9:00am – 10:00am","_geoloc":{"lat":45.5948748,"lng":-122.4885955}},{"siteName":"Harmony Elementary","siteStatus":"Open","siteState":"WA","siteAddress":"17404 18th St, Evergreen, WA 98684","siteZip":"98684","daysofOperation":"M,T,W,TH","lunchTime":"9:00am – 10:00am","_geoloc":{"lat":45.6362994,"lng":-122.5260544}},{"siteName":"Illahee Elementary","siteStatus":"Open","siteState":"WA","siteAddress":"19401 1st St, Evergreen, WA 98134","siteZip":"98134","daysofOperation":"M,T,W,TH","lunchTime":"9:00am – 10:00am","_geoloc":{"lat":47.58219649999999,"lng":-122.3344753}},{"siteName":"Mountain View High School","siteStatus":"Open","siteState":"WA","siteAddress":"1500 Blairmont Dr, Evergreen, WA 98683","siteZip":"98683","daysofOperation":"M,T,W,TH","lunchTime":"9:00am – 10:00am","_geoloc":{"lat":45.61219639999999,"lng":-122.5182866}},{"siteName":"Orchards Elementary","siteStatus":"Open","siteState":"WA","siteAddress":"11405 69th St, Evergreen, WA 98662","siteZip":"98662","daysofOperation":"M,T,W,TH","lunchTime":"9:00am – 10:00am","_geoloc":{"lat":45.67258289999999,"lng":-122.5566369}},{"siteName":"Pioneer Elementary","siteStatus":"Open","siteState":"WA","siteAddress":"7212 166th Ave, Evergreen, WA ","siteZip":"","daysofOperation":"M,T,W,TH","lunchTime":"9:00am – 10:00am","_geoloc":{}},{"siteName":"Riverview Elementary","siteStatus":"Open","siteState":"WA","siteAddress":"12601 Riverridge Dr, Evergreen, WA 98513","siteZip":"98513","daysofOperation":"M,T,W,TH","lunchTime":"9:00am – 10:00am","_geoloc":{"lat":47.056149,"lng":-122.7519879}},{"siteName":"Sifton Elementary","siteStatus":"Open","siteState":"WA","siteAddress":"7301 137th Ave, Evergreen, WA 98682","siteZip":"98682","daysofOperation":"M,T,W,TH","lunchTime":"9:00am – 10:00am","_geoloc":{"lat":45.6756395,"lng":-122.5307918}},{"siteName":"Sunset Elementary","siteStatus":"Open","siteState":"WA","siteAddress":"9001 95th St, Evergreen, WA 98662","siteZip":"98662","daysofOperation":"M,T,W,TH","lunchTime":"9:00am – 10:00am","_geoloc":{"lat":45.6896684,"lng":-122.5821566}},{"siteName":"Wy’east Middle School","siteStatus":"Open","siteState":"WA","siteAddress":"1112 136th Ave, Evergreen, WA ","siteZip":"","daysofOperation":"M,T,W,TH","lunchTime":"9:00am – 10:00am","_geoloc":{"lat":45.6572997,"lng":-122.5331976}},{"siteName":"York Elementary","siteStatus":"Open","siteState":"WA","siteAddress":"9301 152nd Ave, Evergreen, WA 98052","siteZip":"98052","daysofOperation":"M,T,W,TH","lunchTime":"9:00am – 10:00am","_geoloc":{"lat":47.6294571,"lng":-122.1384525}},{"siteName":"Anderson Elementary","siteStatus":"Open","siteState":"WA","siteAddress":"2215 104th St, Vancouver, WA ","siteZip":"","daysofOperation":"M,T,W,TH","lunchTime":"10:00am – 12:00pm","_geoloc":{}},{"siteName":"Fruit Valley Elementary","siteStatus":"Open","siteState":"WA","siteAddress":"3410 Fruit Valley Rd, Vancouver, WA ","siteZip":"","daysofOperation":"M,T,W,TH","lunchTime":"10:00am – 12:00pm","_geoloc":{"lat":45.6493332,"lng":-122.6999526}},{"siteName":"Ogden Elementary School","siteStatus":"Open","siteState":"WA","siteAddress":"3200 86th Ave, Vancouver, WA ","siteZip":"","daysofOperation":"M,T,W,TH","lunchTime":"10:00am – 12:00pm","_geoloc":{}},{"siteName":"Roosevelt Elementary","siteStatus":"Open","siteState":"WA","siteAddress":"2921 Falk Rd, Vancouver, WA 98661","siteZip":"98661","daysofOperation":"M,T,W,TH","lunchTime":"10:00am – 12:00pm","_geoloc":{"lat":45.6421713,"lng":-122.6283316}},{"siteName":"Washington Elementary School","siteStatus":"Open","siteState":"WA","siteAddress":"2908 S St, Vancouver, WA ","siteZip":"","daysofOperation":"M,T,W,TH","lunchTime":"10:00am – 12:00pm","_geoloc":{"lat":45.6257379,"lng":-122.6760886}},{"siteName":"Discovery Middle School","siteStatus":"Open","siteState":"WA","siteAddress":"800 40th St, Vancouver, WA 98660","siteZip":"98660","daysofOperation":"M,T,W,TH","lunchTime":"10:00am – 12:00pm","_geoloc":{"lat":45.6507173,"lng":-122.673462}},{"siteName":"Jason Lee Middle School","siteStatus":"Open","siteState":"WA","siteAddress":"8500 9th Ave, Vancouver, WA ","siteZip":"","daysofOperation":"M,T,W,TH","lunchTime":"10:00am – 12:00pm","_geoloc":{"lat":45.6283855,"lng":-122.5333461}},{"siteName":"Liberty Middle School","siteStatus":"Open","siteState":"WA","siteAddress":"1612 Garfield St, Camas, WA 98607","siteZip":"98607","daysofOperation":"M,T,W,TH","lunchTime":"9am – 11am","_geoloc":{"lat":45.5957091,"lng":-122.4026634}},{"siteName":"Skyridge Middle School","siteStatus":"Open","siteState":"WA","siteAddress":"5220 Parker St, Camas, WA 98607","siteZip":"98607","daysofOperation":"M,T,W,TH","lunchTime":"9am – 11am","_geoloc":{"lat":45.60810679999999,"lng":-122.4505586}},{"siteName":"Dorothy Fox Elementary School","siteStatus":"Open","siteState":"WA","siteAddress":"2623 Sierra St, Camas, WA 98607","siteZip":"98607","daysofOperation":"M,T,W,TH","lunchTime":"7:45 – 8:30am","_geoloc":{"lat":45.6053168,"lng":-122.4269196}},{"siteName":"Prune Hill Elementary School","siteStatus":"Open","siteState":"WA","siteAddress":"1601 Tidland St, Camas, WA 98607","siteZip":"98607","daysofOperation":"M,T,W,TH","lunchTime":"7:45 – 8:30am","_geoloc":{"lat":45.581431,"lng":-122.38434}},{"siteName":"Grass Valley Elementary School","siteStatus":"Open","siteState":"WA","siteAddress":"3000 Grass Valley Dr, Camas, WA 98607","siteZip":"98607","daysofOperation":"M,T,W,TH","lunchTime":"7:45 – 8:30am","_geoloc":{"lat":45.6109344,"lng":-122.442542}},{"siteName":"Woodburn Elementary School","siteStatus":"Open","siteState":"WA","siteAddress":"2400 Woodburn Dr, Camas, WA 98607","siteZip":"98607","daysofOperation":"M,T,W,TH","lunchTime":"7:45 – 8:30am","_geoloc":{"lat":45.6061926,"lng":-122.3888701}},{"siteName":"Union Ridge Elementary (Building B)","siteStatus":"Open","siteState":"WA","siteAddress":"330 5th Ave, Ridgefield, WA 98642","siteZip":"98642","daysofOperation":"M,T,W,TH","lunchTime":"11:00am – 12:00pm","_geoloc":{"lat":45.8199237,"lng":-122.7230118}},{"siteName":"South Ridge Elementary (Building B)","siteStatus":"Open","siteState":"WA","siteAddress":"502 199th St, Ridgefield, WA ","siteZip":"","daysofOperation":"M,T,W,TH","lunchTime":"11:00am – 12:00pm","_geoloc":{}},{"siteName":"Hamllik Park","siteStatus":"Open","siteState":"WA","siteAddress":"4285 Addy St, Washougal, WA 98671","siteZip":"98671","daysofOperation":"M,T,W,TH","lunchTime":"10:00am – 12:00pm","_geoloc":{"lat":45.5746028,"lng":-122.3298165}},{"siteName":"Hathaway Elementary School","siteStatus":"Open","siteState":"WA","siteAddress":"630 24th St, Washougal, WA ","siteZip":"","daysofOperation":"M,T,W,TH","lunchTime":"10:00am – 12:00pm","_geoloc":{}},{"siteName":"Cape Horn-Skye Elementary School","siteStatus":"Open","siteState":"WA","siteAddress":"9731 Washougal River Rd, Washougal, WA ","siteZip":"","daysofOperation":"M,T,W,TH","lunchTime":"10:00am – 12:00pm","_geoloc":{"lat":45.5892799,"lng":-122.3698036}},{"siteName":"Castle Rock Elementary School","siteStatus":"Open","siteState":"WA","siteAddress":"700 Huntington Ave, Castle Rock, WA 98611","siteZip":"98611","daysofOperation":"M,T,W,TH","lunchTime":"10:00am – 12:00pm","_geoloc":{"lat":46.2659286,"lng":-122.9022408}},{"siteName":"Camelot & Guinevere","siteStatus":"Open","siteState":"WA","siteAddress":"Guinevere Ct & Camelot Dr","siteZip":"","daysofOperation":"M,T,W,TH","lunchTime":"10:00am – 10:10am","_geoloc":{}},{"siteName":"Dougherty & Ramsey","siteStatus":"Open","siteState":"WA","siteAddress":"1100 Dougherty Dr, Castle Rock, WA 98611","siteZip":"98611","daysofOperation":"M,T,W,TH","lunchTime":"10:20am – 10:30am","_geoloc":{"lat":46.2805296,"lng":-122.8988624}},{"siteName":"“Chuck’s” Shell Station & Tower Rd","siteStatus":"Open","siteState":"WA","siteAddress":"undefined No undefined, Castle Rock, WA undefined","siteZip":"","daysofOperation":"M,T,W,TH","lunchTime":"10:35am – 10:50am","_geoloc":{}},{"siteName":"Old Pacific Hwy & Burma Rd","siteStatus":"Open","siteState":"WA","siteAddress":"Burma Rd & Old Pacific Hwy","siteZip":"","daysofOperation":"M,T,W,TH","lunchTime":"11:10am – 11:20am","_geoloc":{}},{"siteName":"Happy Trials & Barnes Dr","siteStatus":"Open","siteState":"WA","siteAddress":"Driftwood Ln & Barnes Dr","siteZip":"","daysofOperation":"M,T,W,TH","lunchTime":"11:25am – 11:30am","_geoloc":{}},{"siteName":"St. Helens Elementary – Main Office Entrance","siteStatus":"Open","siteState":"WA","siteAddress":"431 27th Ave, Longview, WA 98632","siteZip":"98632","daysofOperation":"M,T,W,TH","lunchTime":"12:00pm – 12:30pm","_geoloc":{"lat":46.1328615,"lng":-122.9556236}},{"siteName":"Kessler Elementary – Main Office Entrance","siteStatus":"Open","siteState":"WA","siteAddress":"1902 Kessler Blvd, Longview, WA 98632","siteZip":"98632","daysofOperation":"M,T,W,TH","lunchTime":"12:00pm – 12:30pm","_geoloc":{"lat":46.1311303,"lng":-122.9452217}},{"siteName":"Monticello Middle School – Main Office Entrance","siteStatus":"Open","siteState":"WA","siteAddress":"2715 Lilac St, Longview, WA 98632","siteZip":"98632","daysofOperation":"M,T,W,TH","lunchTime":"12:00pm – 12:30pm","_geoloc":{"lat":46.1425785,"lng":-122.9585795}},{"siteName":"Northlake Elementary – Main Office Entrance","siteStatus":"Open","siteState":"WA","siteAddress":"2210 Olympia Way, Longview, WA 98632","siteZip":"98632","daysofOperation":"M,T,W,TH","lunchTime":"12:00pm – 12:30pm","_geoloc":{"lat":46.1634989,"lng":-122.9903419}},{"siteName":"Columbia Heights Elementary – Main Office Entrance","siteStatus":"Open","siteState":"WA","siteAddress":"2820 Parkview Dr, Longview, WA 98632","siteZip":"98632","daysofOperation":"M,T,W,TH","lunchTime":"12:00pm – 12:30pm","_geoloc":{"lat":46.1573563,"lng":-122.939662}},{"siteName":"Mint Valley Elementary – Main Office Entrance","siteStatus":"Open","siteState":"WA","siteAddress":"2745 38th Ave, Longview, WA 98632","siteZip":"98632","daysofOperation":"M,T,W,TH","lunchTime":"12:00pm – 12:30pm","_geoloc":{"lat":46.1542474,"lng":-122.9845521}},{"siteName":"Bridgeport Elementary School","siteStatus":"Open","siteState":"WA","siteAddress":"1400 Tacoma Ave, Bridgeport, WA 98813","siteZip":"98813","daysofOperation":"M,T,W,TH","lunchTime":"7:30AM-9:00AM AND 11:30AM-12:30PM","_geoloc":{"lat":48.00198,"lng":-119.6671065}},{"siteName":"Rock Island Elementary School (Front Door Entry)","siteStatus":"Open","siteState":"WA","siteAddress":"5645 Rock Island Rd, Eastmont, WA ","siteZip":"","daysofOperation":"M,T,W,TH","lunchTime":"11:30AM-1:00PM","_geoloc":{"lat":47.4534442,"lng":-120.2052751}},{"siteName":"Ulysses S. Grant Elementary (Commons Entry)","siteStatus":"Open","siteState":"WA","siteAddress":"1430 1st St, Eastmont, WA 98012","siteZip":"98012","daysofOperation":"M,T,W,TH","lunchTime":"11:30AM-1:00PM","_geoloc":{"lat":47.859476,"lng":-122.220583}},{"siteName":"Sterling Intermediate Middle School (Entry on James Street)","siteStatus":"Open","siteState":"WA","siteAddress":"600 James Ave, Eastmont, WA 98208","siteZip":"98208","daysofOperation":"M,T,W,TH","lunchTime":"11:30AM-1:00PM","_geoloc":{"lat":47.898997,"lng":-122.194622}},{"siteName":"Cascade Elementary (Entry to Gymnasium)","siteStatus":"Open","siteState":"WA","siteAddress":"2330 Baker Ave, Eastmont, WA ","siteZip":"","daysofOperation":"M,T,W,TH","lunchTime":"11:30AM-1:00PM","_geoloc":{"lat":47.4549866,"lng":-120.2910056}},{"siteName":"Mansfield School","siteStatus":"Open","siteState":"WA","siteAddress":"Both breakfast and lunch are available through the school, contact the school directly","siteZip":"","daysofOperation":"M,T,W,TH,F","lunchTime":"at 509-683-1012 for more information.","_geoloc":{}},{"siteName":"Orondo Elementary School","siteStatus":"Open","siteState":"WA","siteAddress":"100 Orondo School Rd, Orondo, WA 98843","siteZip":"98843","daysofOperation":"M,T,W,TH","lunchTime":"11:00AM-12:30PM","_geoloc":{"lat":47.6406196,"lng":-120.2175351}},{"siteName":"Waterville School","siteStatus":"Open","siteState":"WA","siteAddress":"200 Birch St, Waterville, WA ","siteZip":"","daysofOperation":"M,T,W,TH","lunchTime":"9:00AM-10:00AM","_geoloc":{}},{"siteName":"Inchelium School","siteStatus":"Open","siteState":"WA","siteAddress":"2 Hornet Ave, Inchelium, WA 99138","siteZip":"99138","daysofOperation":"M,T,W,TH","lunchTime":"11:30AM-12:30PM","_geoloc":{"lat":48.3019338,"lng":-118.1991118}},{"siteName":"Connell Elementary School","siteStatus":"Open","siteState":"WA","siteAddress":"1001 Clark St, North Franklin, WA 99326","siteZip":"99326","daysofOperation":"M,T,W,TH","lunchTime":"11:00AM-11:30AM","_geoloc":{"lat":46.6632901,"lng":-118.8714268}},{"siteName":"Connell High School Cafeteria","siteStatus":"Open","siteState":"WA","siteAddress":"1100 Clark St, North Franklin, WA 99326","siteZip":"99326","daysofOperation":"M,T,W,TH","lunchTime":"11:00AM-11:30AM","_geoloc":{"lat":46.6632901,"lng":-118.8714268}},{"siteName":"Mesa Elementary School","siteStatus":"Open","siteState":"WA","siteAddress":"200 Pepiot Rd, North Franklin, WA 99343","siteZip":"99343","daysofOperation":"M,T,W,TH","lunchTime":"11:00AM-11:30AM","_geoloc":{"lat":46.5732376,"lng":-118.9976339}},{"siteName":"Basin City Elementary School","siteStatus":"Open","siteState":"WA","siteAddress":"303 Bailie Blvd, North Franklin, WA 99326","siteZip":"99326","daysofOperation":"M,T,W,TH","lunchTime":"11:00AM-11:30AM","_geoloc":{"lat":46.6632901,"lng":-118.8714268}},{"siteName":"Angelou Elementary","siteStatus":"Open","siteState":"WA","siteAddress":"6001 N Rd, Pasco, WA 99301","siteZip":"99301","daysofOperation":"M,T,W,TH","lunchTime":"11:00AM-12:30PM","_geoloc":{"lat":46.2305049,"lng":-119.0922316}},{"siteName":"Chess Elementary","siteStatus":"Open","siteState":"WA","siteAddress":"715 24th Ave, Pasco, WA 99301","siteZip":"99301","daysofOperation":"M,T,W,TH","lunchTime":"11:00AM-12:30PM","_geoloc":{"lat":46.239671,"lng":-119.1226668}},{"siteName":"Curie Elementary","siteStatus":"Open","siteState":"WA","siteAddress":"715 California undefined, Pasco, WA 99301","siteZip":"99301","daysofOperation":"M,T,W,TH","lunchTime":"11:00AM-12:30PM","_geoloc":{"lat":46.2401808,"lng":-119.0794605}},{"siteName":"Emerson Elementary","siteStatus":"Open","siteState":"WA","siteAddress":"1616 Octave undefined, Pasco, WA 99301","siteZip":"99301","daysofOperation":"M,T,W,TH","lunchTime":"11:00AM-12:30PM","_geoloc":{"lat":46.2388497,"lng":-119.151481}},{"siteName":"Franklin Elementary","siteStatus":"Open","siteState":"WA","siteAddress":"6010 Road undefined, Pasco, WA 99301","siteZip":"99301","daysofOperation":"M,T,W,TH","lunchTime":"11:00AM-12:30PM","_geoloc":{"lat":46.256579,"lng":-119.10994}},{"siteName":"Frost Elementary","siteStatus":"Open","siteState":"WA","siteAddress":"1915 22nd Ave, Pasco, WA ","siteZip":"","daysofOperation":"M,T,W,TH","lunchTime":"11:00AM-12:30PM","_geoloc":{}},{"siteName":"Livingston Elementary","siteStatus":"Open","siteState":"WA","siteAddress":"2515 Road undefined, Pasco, WA 99301","siteZip":"99301","daysofOperation":"M,T,W,TH","lunchTime":"11:00AM-12:30PM","_geoloc":{"lat":46.256579,"lng":-119.10994}},{"siteName":"Longfellow Elementary","siteStatus":"Open","siteState":"WA","siteAddress":"301 10th Ave, Pasco, WA 99301","siteZip":"99301","daysofOperation":"M,T,W,TH","lunchTime":"11:00AM-12:30PM","_geoloc":{"lat":46.2375639,"lng":-119.1025787}},{"siteName":"Markham Elementary","siteStatus":"Open","siteState":"WA","siteAddress":"4031 Elm Rd, Pasco, WA ","siteZip":"","daysofOperation":"M,T,W,TH","lunchTime":"11:00AM-12:30PM","_geoloc":{}},{"siteName":"McClintock Elementary","siteStatus":"Open","siteState":"WA","siteAddress":"5706 Road undefined, Pasco, WA 99301","siteZip":"99301","daysofOperation":"M,T,W,TH","lunchTime":"11:00AM-12:30PM","_geoloc":{"lat":46.256579,"lng":-119.10994}},{"siteName":"McGee Elementary","siteStatus":"Open","siteState":"WA","siteAddress":"4601 Horizon Dr, Pasco, WA ","siteZip":"","daysofOperation":"M,T,W,TH","lunchTime":"11:00AM-12:30PM","_geoloc":{}},{"siteName":"Robinson Elementary","siteStatus":"Open","siteState":"WA","siteAddress":"125 Wehe St, Pasco, WA ","siteZip":"","daysofOperation":"M,T,W,TH","lunchTime":"11:00AM-12:30PM","_geoloc":{}},{"siteName":"Twain Elementary","siteStatus":"Open","siteState":"WA","siteAddress":"1801 N Rd, Pasco, WA 99301","siteZip":"99301","daysofOperation":"M,T,W,TH","lunchTime":"11:00AM-12:30PM","_geoloc":{"lat":46.2305049,"lng":-119.0922316}},{"siteName":"Chiawana High School","siteStatus":"Open","siteState":"WA","siteAddress":"8125 Argent Rd, Pasco, WA ","siteZip":"","daysofOperation":"M,T,W,TH","lunchTime":"11:00AM-12:30PM","_geoloc":{}},{"siteName":"New Horizons High School","siteStatus":"Open","siteState":"WA","siteAddress":"2020 Argent Rd, Pasco, WA ","siteZip":"","daysofOperation":"M,T,W,TH","lunchTime":"11:00AM-12:30PM","_geoloc":{}},{"siteName":"Pasco High School","siteStatus":"Open","siteState":"WA","siteAddress":"1108 10th Ave, Pasco, WA 99301","siteZip":"99301","daysofOperation":"M,T,W,TH","lunchTime":"11:00AM-12:30PM","_geoloc":{"lat":46.2375639,"lng":-119.1025787}},{"siteName":"Schlagel Park","siteStatus":"Open","siteState":"WA","siteAddress":"106 Washington St, Pasco, WA 99301","siteZip":"99301","daysofOperation":"M,T,W,TH","lunchTime":"11:00AM-12:30PM","_geoloc":{"lat":46.2305049,"lng":-119.0922316}},{"siteName":"Pomeroy High School","siteStatus":"Open","siteState":"WA","siteAddress":"1090 Pataha St, Pomeroy, WA 99347","siteZip":"99347","daysofOperation":"M,T,W,TH","lunchTime":"10:00AM-11:00AM","_geoloc":{"lat":46.47214779999999,"lng":-117.596098}},{"siteName":"Grant Elementary","siteStatus":"Open","siteState":"WA","siteAddress":"451 3rd Ave, Ephrata, WA 98823","siteZip":"98823","daysofOperation":"M,T,W,TH","lunchTime":"11:00AM-1:00PM","_geoloc":{"lat":47.3126407,"lng":-119.5420886}},{"siteName":"Columbia Ridge Elementary","siteStatus":"Open","siteState":"WA","siteAddress":"60 H St, Ephrata, WA ","siteZip":"","daysofOperation":"M,T,W,TH","lunchTime":"11:00AM-1:00PM","_geoloc":{}},{"siteName":"Parkway School","siteStatus":"Open","siteState":"WA","siteAddress":"1011 Parkway Blvd, Ephrata, WA 98823","siteZip":"98823","daysofOperation":"M,T,W,TH","lunchTime":"11:00AM-1:00PM","_geoloc":{"lat":47.3125735,"lng":-119.561005}},{"siteName":"Ephrata Middle School","siteStatus":"Open","siteState":"WA","siteAddress":"384 A St, Ephrata, WA 98823","siteZip":"98823","daysofOperation":"M,T,W,TH","lunchTime":"11:00AM-1:00PM","_geoloc":{"lat":47.3176385,"lng":-119.5536491}},{"siteName":"Knolls Vista Elementary","siteStatus":"Open","siteState":"WA","siteAddress":"454 W Rdg, Moses Lake, WA 98837","siteZip":"98837","daysofOperation":"M,T,W,TH","lunchTime":"10:30AM-11:30AM","_geoloc":{"lat":47.1301417,"lng":-119.2780771}},{"siteName":"Lakeview Elementary","siteStatus":"Open","siteState":"WA","siteAddress":"780 Clover Dr, Moses Lake, WA ","siteZip":"","daysofOperation":"M,T,W,TH","lunchTime":"10:30AM-11:30AM","_geoloc":{}},{"siteName":"Longview Elementary","siteStatus":"Open","siteState":"WA","siteAddress":"9783 Apple Rd, Moses Lake, WA 98837","siteZip":"98837","daysofOperation":"M,T,W,TH","lunchTime":"10:30AM-11:30AM","_geoloc":{"lat":47.1330536,"lng":-119.2728996}},{"siteName":"Larson Heights Elementary","siteStatus":"Open","siteState":"WA","siteAddress":"700 Lindberg Ln, Moses Lake, WA 98837","siteZip":"98837","daysofOperation":"M,T,W,TH","lunchTime":"10:30AM-11:30AM","_geoloc":{"lat":47.1217511,"lng":-119.2656744}},{"siteName":"Midway Elementary","siteStatus":"Open","siteState":"WA","siteAddress":"502 C St, Moses Lake, WA 98837","siteZip":"98837","daysofOperation":"M,T,W,TH","lunchTime":"10:30AM-11:30AM","_geoloc":{"lat":47.13026,"lng":-119.2703549}},{"siteName":"North Elementary","siteStatus":"Open","siteState":"WA","siteAddress":"1200 Craig St, Moses Lake, WA 98837","siteZip":"98837","daysofOperation":"M,T,W,TH","lunchTime":"10:30AM-11:30AM","_geoloc":{"lat":47.1757232,"lng":-119.3296611}},{"siteName":"Peninsula Elementary","siteStatus":"Open","siteState":"WA","siteAddress":"2406 Texas St, Moses Lake, WA 98837","siteZip":"98837","daysofOperation":"M,T,W,TH","lunchTime":"10:30AM-11:30AM","_geoloc":{"lat":47.1045028,"lng":-119.3040912}},{"siteName":"Quincy Middle School","siteStatus":"Open","siteState":"WA","siteAddress":"16 6th Ave, Quincy, WA 98848","siteZip":"98848","daysofOperation":"M,T,W,TH","lunchTime":"10:30AM-12:30PM","_geoloc":{"lat":47.240167,"lng":-119.8428409}},{"siteName":"Pioneer Elementary","siteStatus":"Open","siteState":"WA","siteAddress":"224 J St, Quincy, WA 98848","siteZip":"98848","daysofOperation":"M,T,W,TH","lunchTime":"10:30AM-12:30PM","_geoloc":{"lat":47.2461607,"lng":-119.8498465}},{"siteName":"George Elementary","siteStatus":"Open","siteState":"WA","siteAddress":"401 Washington Way, Quincy, WA 98848","siteZip":"98848","daysofOperation":"M,T,W,TH","lunchTime":"10:30AM-12:30PM","_geoloc":{"lat":47.2342997,"lng":-119.8525504}},{"siteName":"Mountain View Elementary","siteStatus":"Open","siteState":"WA","siteAddress":"119 D St, Quincy, WA 98848","siteZip":"98848","daysofOperation":"M,T,W,TH","lunchTime":"10:30AM-12:30PM","_geoloc":{"lat":47.23431919999999,"lng":-119.8556261}},{"siteName":"New Life Church","siteStatus":"Open","siteState":"WA","siteAddress":"117 Camelia St, Royal, WA ","siteZip":"","daysofOperation":"M,T,W,TH","lunchTime":"11:00AM-12:30PM","_geoloc":{}},{"siteName":"Fire District No. 10 at Beverly","siteStatus":"Open","siteState":"WA","siteAddress":"Rd 17 SW & Tacoma St, Beverly","siteZip":"","daysofOperation":"M,T,W,TH","lunchTime":"11:00AM-12:30PM","_geoloc":{}},{"siteName":"B & G Farms (at Adams Rd S and Rd 11 SW Intersection)","siteStatus":"Open","siteState":"WA","siteAddress":"12088 Rd 11 undefined, Royal, WA ","siteZip":"","daysofOperation":"M,T,W,TH","lunchTime":"11:00AM-12:30PM","_geoloc":{"lat":46.9284049,"lng":-119.6852147}},{"siteName":"The Church of Jesus Christ of Latter-day Saints","siteStatus":"Open","siteState":"WA","siteAddress":"undefined Royal Cp, Royal, WA undefined","siteZip":"","daysofOperation":"M,T,W,TH","lunchTime":"11:00AM-12:30PM","_geoloc":{}},{"siteName":"Royal Towing (Parking lot)","siteStatus":"Open","siteState":"WA","siteAddress":"14466 Road A7 undefined, Royal, WA 99357","siteZip":"99357","daysofOperation":"M,T,W,TH","lunchTime":"11:00AM-12:30PM","_geoloc":{"lat":46.90097009999999,"lng":-119.6305912}},{"siteName":"Potholes General Store","siteStatus":"Open","siteState":"WA","siteAddress":"6897 WA undefined, Royal, WA 99357","siteZip":"99357","daysofOperation":"M,T,W,TH","lunchTime":"11:00AM-12:30PM","_geoloc":{"lat":46.90097009999999,"lng":-119.6305912}},{"siteName":"Soap Lake Post Office","siteStatus":"Open","siteState":"WA","siteAddress":"511 Division St, Soap Lake, WA 98851","siteZip":"98851","daysofOperation":"M,T,W,TH","lunchTime":"10:30AM-10:45AM","_geoloc":{"lat":47.3893567,"lng":-119.4904307}},{"siteName":"Akins Fresh Market","siteStatus":"Open","siteState":"WA","siteAddress":"115 Daisy St, Soap Lake, WA 98851","siteZip":"98851","daysofOperation":"M,T,W,TH","lunchTime":"10:50AM-11:05AM","_geoloc":{"lat":47.3864957,"lng":-119.4831956}},{"siteName":"Soap Lake Elementary Parking Lot","siteStatus":"Open","siteState":"WA","siteAddress":"410 Ginkgo St, Soap Lake, WA 98851","siteZip":"98851","daysofOperation":"M,T,W,TH","lunchTime":"11:10AM-11:30AM","_geoloc":{"lat":47.390835,"lng":-119.4983255}},{"siteName":"Jeske Park","siteStatus":"Open","siteState":"WA","siteAddress":"West 9th Street and Grant Avenue, Warden","siteZip":"","daysofOperation":"M,T,W,TH","lunchTime":"10:00AM-11:00AM","_geoloc":{}},{"siteName":"Volunteer Park","siteStatus":"Open","siteState":"WA","siteAddress":"East 4th Street and Maple Avenue, Warden","siteZip":"","daysofOperation":"M,T,W,TH","lunchTime":"10:00AM-11:00AM","_geoloc":{}},{"siteName":"Wilson Creek School","siteStatus":"Open","siteState":"WA","siteAddress":"400 Navar St, Wilson Creek, WA 98860","siteZip":"98860","daysofOperation":"M,T,W","lunchTime":"10:00AM-12:00PM","_geoloc":{"lat":47.4255149,"lng":-119.1231863}},{"siteName":"Wes Peterson Park","siteStatus":"Open","siteState":"WA","siteAddress":"2715 Bay undefined, Aberdeen, WA ","siteZip":"","daysofOperation":"M,T,W,TH","lunchTime":"10:00AM-12:00PM","_geoloc":{"lat":46.9728871,"lng":-123.8521473}},{"siteName":"North Aberdeen Park","siteStatus":"Open","siteState":"WA","siteAddress":"1500 BLF of N Young St, Aberdeen, WA 98537","siteZip":"98537","daysofOperation":"M,T,W,TH","lunchTime":"10:00AM-12:00PM","_geoloc":{"lat":46.956473,"lng":-123.772251}},{"siteName":"Pioneer Park","siteStatus":"Open","siteState":"WA","siteAddress":"214 Tilden undefined, Aberdeen, WA ","siteZip":"","daysofOperation":"M,T,W,TH","lunchTime":"10:00AM-12:00PM","_geoloc":{}},{"siteName":"Finch Playfield","siteStatus":"Open","siteState":"WA","siteAddress":"608 Sumner undefined, Aberdeen, WA ","siteZip":"","daysofOperation":"M,T,W,TH","lunchTime":"10:00AM-12:00PM","_geoloc":{"lat":46.9760356,"lng":-123.8479932}},{"siteName":"Central Park Elementary School (Drive through bus lane)","siteStatus":"Open","siteState":"WA","siteAddress":"601 School Rd, Aberdeen, WA 98520","siteZip":"98520","daysofOperation":"M,T,W,TH","lunchTime":"10:00AM-12:00PM","_geoloc":{"lat":46.970858,"lng":-123.7939088}},{"siteName":"Mill Creek Park","siteStatus":"Open","siteState":"WA","siteAddress":"5th Street and B Street, Cosmopolis","siteZip":"","daysofOperation":"M,T,W,TH","lunchTime":"10:45AM-11:00AM","_geoloc":{}},{"siteName":"Toy Room Child Care Bus Stop","siteStatus":"Open","siteState":"WA","siteAddress":"111 I St, Cosmopolis, WA ","siteZip":"","daysofOperation":"M,T,W,TH","lunchTime":"11:05AM-11:20AM","_geoloc":{"lat":46.9553719,"lng":-123.7737763}},{"siteName":"Holly Ln & Altenau","siteStatus":"Open","siteState":"WA","siteAddress":"Holly Ln and Altenau St, Cosmopolis","siteZip":"","daysofOperation":"M,T,W,TH","lunchTime":"11:25AM-11:40AM","_geoloc":{}},{"siteName":"Franklin Hill Park","siteStatus":"Open","siteState":"WA","siteAddress":"Franklin Drive and Paisley Way, Cosmopolis","siteZip":"","daysofOperation":"M,T,W,TH","lunchTime":"11:45-12:00PM","_geoloc":{}},{"siteName":"Satsop Post Office","siteStatus":"Open","siteState":"WA","siteAddress":"102 5th St, Elma, WA 98541","siteZip":"98541","daysofOperation":"M,T,W,TH","lunchTime":"12:30PM-1:00PM","_geoloc":{"lat":47.0026368,"lng":-123.406224}},{"siteName":"Malone Assembly of God","siteStatus":"Open","siteState":"WA","siteAddress":"23 Mox Chehalis Rd, Elma, WA ","siteZip":"","daysofOperation":"M,T,W,TH","lunchTime":"12:00PM-12:30PM","_geoloc":{"lat":47.000469,"lng":-123.2886818}},{"siteName":"White Star","siteStatus":"Open","siteState":"WA","siteAddress":"undefined Mountain undefined, Peak, WA 98584","siteZip":"98584","daysofOperation":"M,T,W,TH","lunchTime":"11:30AM-12:00PM","_geoloc":{}},{"siteName":"10th Street Park","siteStatus":"Open","siteState":"WA","siteAddress":"10 th St, Elma, WA 98541","siteZip":"98541","daysofOperation":"M,T,W,TH","lunchTime":"11:00AM-11:30AM","_geoloc":{"lat":47.0034291,"lng":-123.4087692}},{"siteName":"24 El Monte Lane","siteStatus":"Open","siteState":"WA","siteAddress":"24 El Monte Ln, Elma, WA ","siteZip":"","daysofOperation":"M,T,W,TH","lunchTime":"1:15PM-1:45PM","_geoloc":{"lat":46.9990129,"lng":-123.4440359}},{"siteName":"Murray Place","siteStatus":"Open","siteState":"WA","siteAddress":"undefined Murray Pl, Elma, WA undefined","siteZip":"","daysofOperation":"M,T,W,TH","lunchTime":"12:45PM-1:15PM","_geoloc":{}},{"siteName":"Star Lake Clubhouse","siteStatus":"Open","siteState":"WA","siteAddress":"1137 Star Lake Dr, Elma, WA 98541","siteZip":"98541","daysofOperation":"M,T,W,TH","lunchTime":"12:30PM-1:00PM","_geoloc":{"lat":47.1513921,"lng":-123.329049}},{"siteName":"Summit Pacific Medical Center (Back)","siteStatus":"Open","siteState":"WA","siteAddress":"600 Main St, Elma, WA ","siteZip":"","daysofOperation":"M,T,W,TH","lunchTime":"11:40AM-12:10PM","_geoloc":{}},{"siteName":"Grays Harbor YMCA","siteStatus":"Open","siteState":"WA","siteAddress":"2500 Simpson Ave, Hoquiam, WA ","siteZip":"","daysofOperation":"M,T,W,TH","lunchTime":"11:15AM-11:45AM","_geoloc":{"lat":46.9751859,"lng":-123.8582812}},{"siteName":"Lincoln Elementary","siteStatus":"Open","siteState":"WA","siteAddress":"700 Wood Ave, Hoquiam, WA 98550","siteZip":"98550","daysofOperation":"M,T,W,TH","lunchTime":"11:15AM-11:45AM","_geoloc":{"lat":46.999337,"lng":-123.9040305}},{"siteName":"Central Elementary","siteStatus":"Open","siteState":"WA","siteAddress":"310 Simpson Ave, Hoquiam, WA ","siteZip":"","daysofOperation":"M,T,W,TH","lunchTime":"12:00PM-12:30PM","_geoloc":{"lat":46.9751859,"lng":-123.8582812}},{"siteName":"Emerson Elementary","siteStatus":"Open","siteState":"WA","siteAddress":"101 Emerson undefined, Hoquiam, WA 98550","siteZip":"98550","daysofOperation":"M,T,W,TH","lunchTime":"12:00PM-12:30PM","_geoloc":{"lat":46.98097480000001,"lng":-123.893857}},{"siteName":"Pacific Beach Elementary","siteStatus":"Open","siteState":"WA","siteAddress":"11 4th St, North Beach, WA 98631","siteZip":"98631","daysofOperation":"M,T,W,TH","lunchTime":"11:00AM-1:00PM","_geoloc":{"lat":46.3678618,"lng":-124.0534543}},{"siteName":"Ocean Shores Elementary","siteStatus":"Open","siteState":"WA","siteAddress":"300 Mt Olympus Ave, North Beach, WA 98569","siteZip":"98569","daysofOperation":"M,T,W,TH","lunchTime":"11:00AM-1:00PM","_geoloc":{"lat":46.9653146,"lng":-124.1450897}},{"siteName":"North Beach Junior Senior High School","siteStatus":"Open","siteState":"WA","siteAddress":"336 State Rte, North Beach, WA ","siteZip":"","daysofOperation":"M,T,W,TH","lunchTime":"11:00AM-1:00PM","_geoloc":{}},{"siteName":"Mill Creek Park","siteStatus":"Open","siteState":"WA","siteAddress":"5th Street and B Street, Cosmopolis","siteZip":"","daysofOperation":"M,T,W,TH","lunchTime":"10:45AM-11:00AM","_geoloc":{}},{"siteName":"Toy Room Child Care Bus Stop","siteStatus":"Open","siteState":"WA","siteAddress":"111 I St, North River, WA ","siteZip":"","daysofOperation":"M,T,W,TH","lunchTime":"11:05AM-11:20AM","_geoloc":{"lat":46.7456527,"lng":-123.8904443}},{"siteName":"Holly Ln & Altenau","siteStatus":"Open","siteState":"WA","siteAddress":"Holly Ln and Altenau St, Cosmopolis","siteZip":"","daysofOperation":"M,T,W,TH","lunchTime":"11:25AM-11:40AM","_geoloc":{}},{"siteName":"Franklin Hill Park","siteStatus":"Open","siteState":"WA","siteAddress":"Franklin Drive and Paisley Way, Cosmopolis","siteZip":"","daysofOperation":"M,T,W,TH","lunchTime":"11:45-12:00PM","_geoloc":{}},{"siteName":"Oakville Elementary School Cafeteria","siteStatus":"Open","siteState":"WA","siteAddress":"103 School St, Oakville, WA ","siteZip":"","daysofOperation":"M,T,W,TH","lunchTime":"11:00AM-12:00PM","_geoloc":{}},{"siteName":"Satsop Post Office","siteStatus":"Open","siteState":"WA","siteAddress":"102 5th St, Satsop, WA ","siteZip":"","daysofOperation":"M,T,W,TH","lunchTime":"12:30PM-1:00PM","_geoloc":{"lat":47.0017816,"lng":-123.4830127}},{"siteName":"Taholah School","siteStatus":"Open","siteState":"WA","siteAddress":"600 Chitwhin Dr, Taholah, WA 98587","siteZip":"98587","daysofOperation":"M,T,W,TH","lunchTime":"10:00AM-10:30AM","_geoloc":{"lat":47.3447142,"lng":-124.2874016}},{"siteName":"Q Village (Bus Stop)","siteStatus":"Open","siteState":"WA","siteAddress":"Quinault & 2nd, Taholah","siteZip":"","daysofOperation":"M,T,W,TH","lunchTime":"10:30AM-11:00AM","_geoloc":{}},{"siteName":"Wishkah Fire Station (Gravel parking lot closest to school)","siteStatus":"Open","siteState":"WA","siteAddress":"4660 Wishkah Rd, Wishkah Valley, WA ","siteZip":"","daysofOperation":"M,T,W,TH","lunchTime":"10:00AM-10:10AM","_geoloc":{}},{"siteName":"Red Rooster (Parking lot on Highway 101)","siteStatus":"Open","siteState":"WA","siteAddress":"2803 US Hwy, Wishkah Valley, WA 98520","siteZip":"98520","daysofOperation":"M,T,W,TH","lunchTime":"10:40AM-10:50AM","_geoloc":{"lat":47.1174812,"lng":-123.7710343}},{"siteName":"Stover Road on the East Hoquiam","siteStatus":"Open","siteState":"WA","siteAddress":"Stover Road & East Hoquiam Road, Hoquiam","siteZip":"","daysofOperation":"M,T,W,TH","lunchTime":"11:05AM-11:15AM","_geoloc":{}},{"siteName":"Wishkah Valley Community Church (Parking lot)","siteStatus":"Open","siteState":"WA","siteAddress":"4281 Wishkah Rd, Wishkah Valley, WA ","siteZip":"","daysofOperation":"M,T,W,TH","lunchTime":"11:30AM-11:40AM","_geoloc":{}},{"siteName":"Aberdeen Gardens Road Bridge","siteStatus":"Open","siteState":"WA","siteAddress":"Aberdeen Gardens Road & Riverside Rd E","siteZip":"","daysofOperation":"M,T,W,TH","lunchTime":"11:45AM-11:55AM","_geoloc":{}},{"siteName":"Coupeville High School Commons","siteStatus":"Open","siteState":"WA","siteAddress":"501 Main St, Coupeville, WA 98239","siteZip":"98239","daysofOperation":"M,T,W,TH","lunchTime":"10:00AM-11:00AM","_geoloc":{"lat":48.2166961,"lng":-122.6861419}},{"siteName":"Broad View Elementary","siteStatus":"Open","siteState":"WA","siteAddress":"473 Fairhaven Dr, Oak Harbor, WA ","siteZip":"","daysofOperation":"M,T,W,TH","lunchTime":"10:00AM-2:00PM","_geoloc":{}},{"siteName":"Crescent Harbor Elementary","siteStatus":"Open","siteState":"WA","siteAddress":"350 E Cres, Oak Harbor, WA 98277","siteZip":"98277","daysofOperation":"M,T,W,TH","lunchTime":"10:00AM-2:00PM","_geoloc":{"lat":48.28829469999999,"lng":-122.6484205}},{"siteName":"Olympic View Elementary","siteStatus":"Open","siteState":"WA","siteAddress":"380 Regatta Dr, Oak Harbor, WA 98277","siteZip":"98277","daysofOperation":"M,T,W,TH","lunchTime":"10:00AM-2:00PM","_geoloc":{"lat":48.2937877,"lng":-122.6357831}},{"siteName":"South Whidbey High School (Parking lot at the doors to the SWHS kitchen)","siteStatus":"Open","siteState":"WA","siteAddress":"5675 Maxwelton Rd, South Whidbey, WA 98236","siteZip":"98236","daysofOperation":"M,T,W,TH","lunchTime":"11:00AM-1:00PM","_geoloc":{"lat":47.940566,"lng":-122.4419057}},{"siteName":"Salish Coast Elementary","siteStatus":"Open","siteState":"WA","siteAddress":"1637 Grant St, Port Townsend, WA ","siteZip":"","daysofOperation":"M,T,W,TH","lunchTime":"9:00AM-11:00AM","_geoloc":{}},{"siteName":"Port Townsend High School","siteStatus":"Open","siteState":"WA","siteAddress":"1500 Van Ness St, Port Townsend, WA 98368","siteZip":"98368","daysofOperation":"M,T,W,TH","lunchTime":"9:00AM-11:00AM","_geoloc":{"lat":48.1175927,"lng":-122.7679782}},{"siteName":"Jefferson County Airport","siteStatus":"Open","siteState":"WA","siteAddress":"191 Airport Cutoff Rd, Port Townsend, WA ","siteZip":"","daysofOperation":"M,T,W,TH","lunchTime":"9:00AM-11:00AM","_geoloc":{"lat":48.0579422,"lng":-122.8062489}},{"siteName":"Cape George Fire Hall","siteStatus":"Open","siteState":"WA","siteAddress":"3850 Cape George Rd, Port Townsend, WA 98368","siteZip":"98368","daysofOperation":"M,T,W,TH","lunchTime":"9:00AM-11:00AM","_geoloc":{"lat":48.1026837,"lng":-122.802271}},{"siteName":"Quilcene School","siteStatus":"Open","siteState":"WA","siteAddress":"294715 US Hwy, Quilcene, WA 98376","siteZip":"98376","daysofOperation":"M,T,W,TH","lunchTime":"10:00AM-12:00PM","_geoloc":{"lat":47.8223137,"lng":-122.8757198}},{"siteName":"Coyle Fire Station","siteStatus":"Open","siteState":"WA","siteAddress":"60 Whitney Rd, Quilcene, WA ","siteZip":"","daysofOperation":"M,T,W,TH","lunchTime":"10:15AM-10:45AM","_geoloc":{"lat":47.7090514,"lng":-122.7905546}},{"siteName":"The Laurel B. Johnson Community Center","siteStatus":"Open","siteState":"WA","siteAddress":"923 Hazel Point Rd, Quilcene, WA ","siteZip":"","daysofOperation":"M,T,W,TH","lunchTime":"10:50AM-11:20AM","_geoloc":{}},{"siteName":"Dabob Fire Station","siteStatus":"Open","siteState":"WA","siteAddress":"3281 Dabob Rd, Quilcene, WA ","siteZip":"","daysofOperation":"M,T,W,TH","lunchTime":"11:45AM-12:15PM","_geoloc":{"lat":47.8873852,"lng":-122.8237789}},{"siteName":"Faith Farm","siteStatus":"Open","siteState":"WA","siteAddress":"undefined US Hwy, Quilcene, WA undefined","siteZip":"","daysofOperation":"M,T,W,TH","lunchTime":"10:15AM-10:45AM","_geoloc":{}},{"siteName":"Lake Leland (Near docks)","siteStatus":"Open","siteState":"WA","siteAddress":"undefined Lake Leland Park Rd, Quilcene, WA undefined","siteZip":"","daysofOperation":"M,T,W,TH","lunchTime":"10:50AM-11:20AM","_geoloc":{}},{"siteName":"Discovery Bay Store","siteStatus":"Open","siteState":"WA","siteAddress":"282332 US Hwy, Quilcene, WA 98376","siteZip":"98376","daysofOperation":"M,T,W,TH","lunchTime":"11:45AM-12:15PM","_geoloc":{"lat":47.8223137,"lng":-122.8757198}},{"siteName":"Linger Longer Marina","siteStatus":"Open","siteState":"WA","siteAddress":"1731 Linger Longer Rd, Quilcene, WA 98376","siteZip":"98376","daysofOperation":"M,T,W,TH","lunchTime":"10:15AM-10:45AM","_geoloc":{"lat":47.827908,"lng":-122.875557}},{"siteName":"ALPAC Elementary","siteStatus":"Open","siteState":"WA","siteAddress":"310 Milwaukee Blvd, Auburn, WA ","siteZip":"","daysofOperation":"M,T,W,TH","lunchTime":"8:30am-9:30am AND 11:00-12:30pm","_geoloc":{"lat":47.26730200000001,"lng":-122.25016}},{"siteName":"Arthur Jacobsen Elementary","siteStatus":"Open","siteState":"WA","siteAddress":"29205 132nd Ave, Auburn, WA 98092","siteZip":"98092","daysofOperation":"M,T,W,TH","lunchTime":"8:30am-9:30am AND 11:00-12:30pm","_geoloc":{"lat":47.3263263,"lng":-122.1649834}},{"siteName":"Auburn High School","siteStatus":"Open","siteState":"WA","siteAddress":"711 Main St, Auburn, WA 98002","siteZip":"98002","daysofOperation":"M,T,W,TH","lunchTime":"8:30am-9:30am AND 11:00-12:30pm","_geoloc":{"lat":47.307915,"lng":-122.216081}},{"siteName":"Auburn Mountainview High School","siteStatus":"Open","siteState":"WA","siteAddress":"28900 124th Ave, Auburn, WA ","siteZip":"","daysofOperation":"M,T,W,TH","lunchTime":"8:30am-9:30am AND 11:00-12:30pm","_geoloc":{}},{"siteName":"Auburn Riverside High School","siteStatus":"Open","siteState":"WA","siteAddress":"501 Oravetz Rd, Auburn, WA ","siteZip":"","daysofOperation":"M,T,W,TH","lunchTime":"8:30am-9:30am AND 11:00-12:30pm","_geoloc":{}},{"siteName":"Auburn YMCA","siteStatus":"Open","siteState":"WA","siteAddress":"1620 Perimeter Rd, Auburn, WA 98001","siteZip":"98001","daysofOperation":"M,T,W,TH,F","lunchTime":"11:00AM-12:00PM","_geoloc":{"lat":47.28864009999999,"lng":-122.243186}},{"siteName":"Cascade Middle School","siteStatus":"Open","siteState":"WA","siteAddress":"1015 24th St, Auburn, WA 98002","siteZip":"98002","daysofOperation":"M,T,W,TH","lunchTime":"8:30am-9:30am AND 11:00-12:30pm","_geoloc":{"lat":47.2873977,"lng":-122.2099151}},{"siteName":"Chinook Elementary","siteStatus":"Open","siteState":"WA","siteAddress":"3502 Auburn Way, Auburn, WA ","siteZip":"","daysofOperation":"M,T,W,TH","lunchTime":"8:30am-9:30am AND 11:00-12:30pm","_geoloc":{"lat":47.30732279999999,"lng":-122.2284532}},{"siteName":"Dale Turner YMCA","siteStatus":"Open","siteState":"WA","siteAddress":"19290 Aurora Ave, Auburn, WA ","siteZip":"","daysofOperation":"M,T,W,TH,F","lunchTime":"12:00PM-12:30PM","_geoloc":{"lat":47.30732279999999,"lng":-122.2284532}},{"siteName":"Dick Scobee Elementary","siteStatus":"Open","siteState":"WA","siteAddress":"1825 K St, Auburn, WA 98002","siteZip":"98002","daysofOperation":"M,T,W,TH","lunchTime":"8:30am-9:30am AND 11:00-12:30pm","_geoloc":{"lat":47.3202946,"lng":-122.2159361}},{"siteName":"Evergreen Heights Elementary","siteStatus":"Open","siteState":"WA","siteAddress":"5602 316th undefined, Auburn, WA 98092","siteZip":"98092","daysofOperation":"M,T,W,TH","lunchTime":"8:30am-9:30am AND 11:00-12:30pm","_geoloc":{"lat":47.31892389999999,"lng":-122.180624}},{"siteName":"Gildo Rey Elementary","siteStatus":"Open","siteState":"WA","siteAddress":"1005 37th St, Auburn, WA 98002","siteZip":"98002","daysofOperation":"M,T,W,TH","lunchTime":"8:30am-9:30am AND 11:00-12:30pm","_geoloc":{"lat":47.2758003,"lng":-122.2177388}},{"siteName":"Hazelwood Elementary","siteStatus":"Open","siteState":"WA","siteAddress":"11815 304th St, Auburn, WA ","siteZip":"","daysofOperation":"M,T,W,TH","lunchTime":"8:30am-9:30am AND 11:00-12:30pm","_geoloc":{}},{"siteName":"Ilalko Elementary","siteStatus":"Open","siteState":"WA","siteAddress":"301 Oravetz Pl, Auburn, WA ","siteZip":"","daysofOperation":"M,T,W,TH","lunchTime":"8:30am-9:30am AND 11:00-12:30pm","_geoloc":{}},{"siteName":"Lake View Elementary","siteStatus":"Open","siteState":"WA","siteAddress":"16401 318th undefined, Auburn, WA ","siteZip":"","daysofOperation":"M,T,W,TH","lunchTime":"8:30am-9:30am AND 11:00-12:30pm","_geoloc":{}},{"siteName":"Lakeland Hills Elementary","siteStatus":"Open","siteState":"WA","siteAddress":"1020 Evergreen Way, Auburn, WA 98002","siteZip":"98002","daysofOperation":"M,T,W,TH","lunchTime":"8:30am-9:30am AND 11:00-12:30pm","_geoloc":{"lat":47.32149159999999,"lng":-122.2243046}},{"siteName":"Lea Hill Elementary","siteStatus":"Open","siteState":"WA","siteAddress":"30908 124th Ave, Auburn, WA ","siteZip":"","daysofOperation":"M,T,W,TH","lunchTime":"8:30am-9:30am AND 11:00-12:30pm","_geoloc":{}},{"siteName":"Mt Baker Middle School","siteStatus":"Open","siteState":"WA","siteAddress":"620 37th St, Auburn, WA 98002","siteZip":"98002","daysofOperation":"M,T,W,TH","lunchTime":"8:30am-9:30am AND 11:00-12:30pm","_geoloc":{"lat":47.2758003,"lng":-122.2177388}},{"siteName":"Olympic Middle School","siteStatus":"Open","siteState":"WA","siteAddress":"839 21st St, Auburn, WA ","siteZip":"","daysofOperation":"M,T,W,TH","lunchTime":"8:30am-9:30am AND 11:00-12:30pm","_geoloc":{}},{"siteName":"Pioneer Elementary","siteStatus":"Open","siteState":"WA","siteAddress":"2301 M St, Auburn, WA 98001","siteZip":"98001","daysofOperation":"M,T,W,TH","lunchTime":"8:30am-9:30am AND 11:00-12:30pm","_geoloc":{"lat":47.2992676,"lng":-122.2449114}},{"siteName":"Rainier Middle School","siteStatus":"Open","siteState":"WA","siteAddress":"30620 116th Ave, Auburn, WA ","siteZip":"","daysofOperation":"M,T,W,TH","lunchTime":"8:30am-9:30am AND 11:00-12:30pm","_geoloc":{"lat":47.3316578,"lng":-122.1869199}},{"siteName":"West Auburn High School","siteStatus":"Open","siteState":"WA","siteAddress":"401 Main St, Auburn, WA 98002","siteZip":"98002","daysofOperation":"M,T,W,TH","lunchTime":"8:30am-9:30am AND 11:00-12:30pm","_geoloc":{"lat":47.307915,"lng":-122.216081}},{"siteName":"Black Diamond Elementary ***Starting Wednesday, 3/18","siteStatus":"Open","siteState":"WA","siteAddress":"25314 Baker St, East King County, WA ","siteZip":"","daysofOperation":"M,T,W,TH","lunchTime":"111:00am-12:30am","_geoloc":{"lat":47.57836,"lng":-122.2930203}},{"siteName":"Enumclaw High School ***Starting Wednesday, 3/18","siteStatus":"Open","siteState":"WA","siteAddress":"226 Semanski St, East King County, WA 98022","siteZip":"98022","daysofOperation":"M,T,W,TH","lunchTime":"111:00am-12:30am","_geoloc":{"lat":47.19936209999999,"lng":-122.005542}},{"siteName":"Enumclaw King County Library ***Starting Wednesday, 3/18","siteStatus":"Open","siteState":"WA","siteAddress":"1700 1st St, East King County, WA ","siteZip":"","daysofOperation":"M,T,W,TH","lunchTime":"111:00am-12:30am","_geoloc":{"lat":47.5480339,"lng":-121.9836029}},{"siteName":"Andrew’s Glen Apartments","siteStatus":"Open","siteState":"WA","siteAddress":"4220 Factoria Blvd, East King County, WA 98006","siteZip":"98006","daysofOperation":"M,T,W,TH","lunchTime":"12:00PM-12:15PM","_geoloc":{"lat":47.5682842,"lng":-122.1693461}},{"siteName":"Andmore Elementary","siteStatus":"Open","siteState":"WA","siteAddress":"16616 32nd St, East King County, WA 98112","siteZip":"98112","daysofOperation":"M,T,W,TH","lunchTime":"12:15PM-12:30PM","_geoloc":{"lat":47.6242408,"lng":-122.2910903}},{"siteName":"August Wilson Place","siteStatus":"Open","siteState":"WA","siteAddress":"204 111th Ave, East King County, WA 98070","siteZip":"98070","daysofOperation":"M,T,W,TH","lunchTime":"12:30PM-12:45PM","_geoloc":{"lat":47.40927500000001,"lng":-122.4763908}},{"siteName":"Bennett Elementary","siteStatus":"Open","siteState":"WA","siteAddress":"17900 16th St, East King County, WA 98112","siteZip":"98112","daysofOperation":"M,T,W,TH","lunchTime":"12:00PM-12:15PM","_geoloc":{"lat":47.6298012,"lng":-122.3112489}},{"siteName":"Central Park East Apartments","siteStatus":"Open","siteState":"WA","siteAddress":"15207 16th Pl, East King County, WA 98112","siteZip":"98112","daysofOperation":"M,T,W,TH","lunchTime":"12:00PM-12:15PM","_geoloc":{"lat":47.6298012,"lng":-122.3112489}},{"siteName":"Chalet Apartments (at the circle)","siteStatus":"Open","siteState":"WA","siteAddress":"145th Pl SE & 146th Ave SE, Bellevue","siteZip":"","daysofOperation":"M,T,W,TH","lunchTime":"12:30PM-12:45PM","_geoloc":{}},{"siteName":"Cherry Crest Elementary ","siteStatus":"Open","siteState":"WA","siteAddress":"12400 32nd St, East King County, WA 98112","siteZip":"98112","daysofOperation":"M,T,W,TH","lunchTime":"12:15PM-12:30PM","_geoloc":{"lat":47.6242408,"lng":-122.2910903}},{"siteName":"Clyde Hill Elementary","siteStatus":"Open","siteState":"WA","siteAddress":"9601 24th St, East King County, WA 98112","siteZip":"98112","daysofOperation":"M,T,W,TH","lunchTime":"12:15PM-12:30PM","_geoloc":{"lat":47.6322126,"lng":-122.3016085}},{"siteName":"Eastgate Elementary ","siteStatus":"Open","siteState":"WA","siteAddress":"4255 153rd Ave, East King County, WA ","siteZip":"","daysofOperation":"M,T,W,TH","lunchTime":"12:00PM-12:15PM","_geoloc":{}},{"siteName":"Eastside Terrace Apartments","siteStatus":"Open","siteState":"WA","siteAddress":"147th Pl NE & NE 8th St, Bellevue","siteZip":"","daysofOperation":"M,T,W,TH","lunchTime":"12:55PM-1:00PM","_geoloc":{}},{"siteName":"Emerald Ridge Apartments","siteStatus":"Open","siteState":"WA","siteAddress":"3010 118th Ave, East King County, WA 98034","siteZip":"98034","daysofOperation":"M,T,W,TH","lunchTime":"12:30PM-12:45PM","_geoloc":{"lat":47.70631849999999,"lng":-122.1828745}},{"siteName":"Enatai Elementary ","siteStatus":"Open","siteState":"WA","siteAddress":"10700 25th St, East King County, WA 98112","siteZip":"98112","daysofOperation":"M,T,W,TH","lunchTime":"12:15PM-12:30PM","_geoloc":{"lat":47.6312672,"lng":-122.3003076}},{"siteName":"Hopelink Place (at 102nd Ave)","siteStatus":"Open","siteState":"WA","siteAddress":"10116 6th St, East King County, WA 98005","siteZip":"98005","daysofOperation":"M,T,W,TH","lunchTime":"12:00PM-12:15PM","_geoloc":{"lat":47.6271701,"lng":-122.1786504}},{"siteName":"Landmark Apartments","siteStatus":"Open","siteState":"WA","siteAddress":"16330 11th St, East King County, WA ","siteZip":"","daysofOperation":"M,T,W,TH","lunchTime":"12:00PM-12:15PM","_geoloc":{"lat":47.63507389999999,"lng":-122.3180701}},{"siteName":"Medina Elementary ","siteStatus":"Open","siteState":"WA","siteAddress":"8001 8th St, East King County, WA ","siteZip":"","daysofOperation":"M,T,W,TH","lunchTime":"12:45PM-1:00PM","_geoloc":{"lat":47.5480339,"lng":-121.9836029}},{"siteName":"Newport Heights Elementary","siteStatus":"Open","siteState":"WA","siteAddress":"5225 119th Ave, East King County, WA ","siteZip":"","daysofOperation":"M,T,W,TH","lunchTime":"12:00PM-12:15PM","_geoloc":{"lat":47.4964909,"lng":-122.351871}},{"siteName":"North Bellevue Community Center","siteStatus":"Open","siteState":"WA","siteAddress":"4063 148th Ave, East King County, WA ","siteZip":"","daysofOperation":"M,T,W,TH","lunchTime":"12:30PM-12:45PM","_geoloc":{"lat":47.65626640000001,"lng":-122.1433253}},{"siteName":"Overlake Park and Ride (at the 2600 Crossing)","siteStatus":"Open","siteState":"WA","siteAddress":"2650 152nd Ave, East King County, WA ","siteZip":"","daysofOperation":"M,T,W,TH","lunchTime":"12:50PM-1:05PM","_geoloc":{}},{"siteName":"Piedmont Apartments","siteStatus":"Open","siteState":"WA","siteAddress":"1200 155th Ave, East King County, WA ","siteZip":"","daysofOperation":"M,T,W,TH","lunchTime":"12:40PM-12:55PM","_geoloc":{"lat":47.7406525,"lng":-122.2447995}},{"siteName":"Redmond Park Apartments","siteStatus":"Open","siteState":"WA","siteAddress":"14700 35th St, East King County, WA 98112","siteZip":"98112","daysofOperation":"M,T,W,TH","lunchTime":"12:50PM-1:05PM","_geoloc":{"lat":47.6205115,"lng":-122.2879257}},{"siteName":"Sammamish View Apartments (at Eastgate turnaround)","siteStatus":"Open","siteState":"WA","siteAddress":"16160 Eastgate Way, East King County, WA 98006","siteZip":"98006","daysofOperation":"M,T,W,TH","lunchTime":"12:25PM-12:40PM","_geoloc":{"lat":47.5730972,"lng":-122.1353508}},{"siteName":"Sherwood Forest Elementary ","siteStatus":"Open","siteState":"WA","siteAddress":"16411 24th St, East King County, WA 98112","siteZip":"98112","daysofOperation":"M,T,W,TH","lunchTime":"12:50PM-1:05PM","_geoloc":{"lat":47.6322126,"lng":-122.3016085}},{"siteName":"Somerset Elementary ","siteStatus":"Open","siteState":"WA","siteAddress":"14100 Somerset Blvd, East King County, WA 98006","siteZip":"98006","daysofOperation":"M,T,W,TH","lunchTime":"12:25PM-12:40PM","_geoloc":{"lat":47.556171,"lng":-122.1588613}},{"siteName":"Spiritridge Elementary","siteStatus":"Open","siteState":"WA","siteAddress":"16401 24th St, East King County, WA 98112","siteZip":"98112","daysofOperation":"M,T,W,TH","lunchTime":"12:00PM-12:15PM","_geoloc":{"lat":47.6322126,"lng":-122.3016085}},{"siteName":"Spiritwood Manor","siteStatus":"Open","siteState":"WA","siteAddress":"17222 8th St, East King County, WA ","siteZip":"","daysofOperation":"M,T,W,TH","lunchTime":"12:00PM-12:15PM","_geoloc":{"lat":47.5480339,"lng":-121.9836029}},{"siteName":"St Peter’s United Methodist Church","siteStatus":"Open","siteState":"WA","siteAddress":"17222 8th St, East King County, WA ","siteZip":"","daysofOperation":"M,T,W,TH","lunchTime":"12:25PM-12:40PM","_geoloc":{"lat":47.5480339,"lng":-121.9836029}},{"siteName":"The Club Teen Center","siteStatus":"Open","siteState":"WA","siteAddress":"15238 Lake Hills Blvd, East King County, WA ","siteZip":"","daysofOperation":"M,T,W,TH","lunchTime":"12:30PM-12:45PM","_geoloc":{"lat":47.5963559,"lng":-122.1426392}},{"siteName":"The Court at Crossroads Apartments","siteStatus":"Open","siteState":"WA","siteAddress":"15616 15th St, East King County, WA ","siteZip":"","daysofOperation":"M,T,W,TH","lunchTime":"12:25PM-12:35PM","_geoloc":{"lat":47.6300229,"lng":-122.3125278}},{"siteName":"The Trails of Redmond (at 40th St Entrance)","siteStatus":"Open","siteState":"WA","siteAddress":"16539 35th Ct, East King County, WA 98112","siteZip":"98112","daysofOperation":"M,T,W,TH","lunchTime":"12:25PM-12:40PM","_geoloc":{"lat":47.6205115,"lng":-122.2879257}},{"siteName":"Tillicum Middle School","siteStatus":"Open","siteState":"WA","siteAddress":"1280 160th Ave, East King County, WA ","siteZip":"","daysofOperation":"M,T,W,TH","lunchTime":"12:15PM-12:30PM","_geoloc":{}},{"siteName":"Tyee Middle School","siteStatus":"Open","siteState":"WA","siteAddress":"13630 Allen Rd, East King County, WA 98004","siteZip":"98004","daysofOperation":"M,T,W,TH","lunchTime":"12:00PM-12:15PM","_geoloc":{"lat":47.6105521,"lng":-122.1913103}},{"siteName":"Wilburton Elementary ","siteStatus":"Open","siteState":"WA","siteAddress":"12300 Main St, East King County, WA 98005","siteZip":"98005","daysofOperation":"M,T,W,TH","lunchTime":"12:45PM-1:10PM","_geoloc":{"lat":47.6271701,"lng":-122.1786504}},{"siteName":"Woodridge Elementary","siteStatus":"Open","siteState":"WA","siteAddress":"12619 20th Pl, East King County, WA 98112","siteZip":"98112","daysofOperation":"M,T,W,TH","lunchTime":"12:45PM-1:00PM","_geoloc":{"lat":47.6306162,"lng":-122.306001}},{"siteName":"Sammamish High School","siteStatus":"Open","siteState":"WA","siteAddress":"100 140th Ave, East King County, WA ","siteZip":"","daysofOperation":"M,T,W,TH","lunchTime":"11:00am-12:00pm","_geoloc":{"lat":47.64388599999999,"lng":-122.1535273}},{"siteName":"Lake Hills Elementary","siteStatus":"Open","siteState":"WA","siteAddress":"100 140th Ave, East King County, WA ","siteZip":"","daysofOperation":"M,T,W,TH","lunchTime":"11:00am-12:00pm","_geoloc":{"lat":47.64388599999999,"lng":-122.1535273}},{"siteName":"Stevenson Elementary","siteStatus":"Open","siteState":"WA","siteAddress":"14220 8th St, East King County, WA ","siteZip":"","daysofOperation":"M,T,W,TH","lunchTime":"11:00am-12:00pm","_geoloc":{"lat":47.5480339,"lng":-121.9836029}},{"siteName":"Finn Hill Middle School","siteStatus":"Open","siteState":"WA","siteAddress":"8040 132nd St, East King County, WA 98146","siteZip":"98146","daysofOperation":"M,T,W,TH","lunchTime":"10:30AM-12:00PM","_geoloc":{"lat":47.4848673,"lng":-122.3418775}},{"siteName":"Inglewood Middle School","siteStatus":"Open","siteState":"WA","siteAddress":"24120 8th St, East King County, WA ","siteZip":"","daysofOperation":"M,T,W,TH","lunchTime":"10:30AM-12:00PM","_geoloc":{"lat":47.5480339,"lng":-121.9836029}},{"siteName":"Kamiakin Middle School","siteStatus":"Open","siteState":"WA","siteAddress":"14111 132nd Ave, East King County, WA 98146","siteZip":"98146","daysofOperation":"M,T,W,TH","lunchTime":"10:30AM-12:00PM","_geoloc":{"lat":47.4848673,"lng":-122.3418775}},{"siteName":"Redmond Middle School ","siteStatus":"Open","siteState":"WA","siteAddress":"10055 166th Ave, East King County, WA ","siteZip":"","daysofOperation":"M,T,W,TH","lunchTime":"10:30AM-12:00PM","_geoloc":{"lat":47.47041489999999,"lng":-122.1183659}},{"siteName":"Rose Hill Middle School","siteStatus":"Open","siteState":"WA","siteAddress":"13505 75th St, East King County, WA ","siteZip":"","daysofOperation":"M,T,W,TH","lunchTime":"10:30AM-12:00PM","_geoloc":{}},{"siteName":"Timberline Middle School","siteStatus":"Open","siteState":"WA","siteAddress":"9900 Redmond Ridge Dr, East King County, WA 98053","siteZip":"98053","daysofOperation":"M,T,W,TH","lunchTime":"10:30AM-12:00PM","_geoloc":{"lat":47.69130879999999,"lng":-122.0195703}},{"siteName":"Adelaide Elementary School ","siteStatus":"Open","siteState":"WA","siteAddress":"1635 304th St Federal Way, Federal Way, WA 98023","siteZip":"98023","daysofOperation":"M,T,W,TH","lunchTime":"11:30AM – 12:00AM","_geoloc":{"lat":47.3287207,"lng":-122.3563999}},{"siteName":"Appian Way ","siteStatus":"Open","siteState":"WA","siteAddress":"25818 26th Pl, Federal Way, WA ","siteZip":"","daysofOperation":"M,T,W,TH","lunchTime":"12:20PM – 1:25PM","_geoloc":{}},{"siteName":"Camelot Square","siteStatus":"Open","siteState":"WA","siteAddress":"3001 288 St, Federal Way, WA ","siteZip":"","daysofOperation":"M,T,W,TH","lunchTime":"10:45-11:50am","_geoloc":{"lat":47.3393845,"lng":-122.2948607}},{"siteName":"Crestview West","siteStatus":"Open","siteState":"WA","siteAddress":"27912 Pacific Hwy, Federal Way, WA ","siteZip":"","daysofOperation":"M,T,W,TH","lunchTime":"1:55-3:00pm","_geoloc":{"lat":47.31101049999999,"lng":-122.3134965}},{"siteName":"Decatur High School","siteStatus":"Open","siteState":"WA","siteAddress":"2800 320th St Federal Way, Federal Way, WA 98003","siteZip":"98003","daysofOperation":"M,T,W,TH","lunchTime":"10:00AM – 12:00PM","_geoloc":{"lat":47.31231229999999,"lng":-122.3009232}},{"siteName":"Federal Way High School","siteStatus":"Open","siteState":"WA","siteAddress":"30611 16th Ave S Federal Way, Federal Way, WA 98003","siteZip":"98003","daysofOperation":"M,T,W,TH","lunchTime":"10:00AM – 12:00PM","_geoloc":{"lat":47.2917625,"lng":-122.3128756}},{"siteName":"Mark Twain Elementary School ","siteStatus":"Open","siteState":"WA","siteAddress":"2450 Star Lake Rd Federal Way, Federal Way, WA ","siteZip":"","daysofOperation":"M,T,W,TH","lunchTime":"11:30AM – 12 PM","_geoloc":{}},{"siteName":"Thomas Jefferson High School ","siteStatus":"Open","siteState":"WA","siteAddress":"4248 288th St, Federal Way, WA ","siteZip":"","daysofOperation":"M,T,W,TH","lunchTime":"10:00AM – 12:00PM","_geoloc":{"lat":47.3393845,"lng":-122.2948607}},{"siteName":"Todd Beamer High School ","siteStatus":"Open","siteState":"WA","siteAddress":"35999 16th Ave S Federal Way, Federal Way, WA 98003","siteZip":"98003","daysofOperation":"M,T,W,TH","lunchTime":"10:00AM – 12:00PM","_geoloc":{"lat":47.2917625,"lng":-122.3128756}},{"siteName":"Twin Lakes Elementary School ","siteStatus":"Open","siteState":"WA","siteAddress":"4400 320th St Federal Way, Federal Way, WA 98003","siteZip":"98003","daysofOperation":"M,T,W,TH","lunchTime":"11:30AM – 12 PM","_geoloc":{"lat":47.31231229999999,"lng":-122.3009232}},{"siteName":"Encore Apartment Homes ","siteStatus":"Open","siteState":"WA","siteAddress":"125 Campus Dr Federal Way, Federal Way, WA 98023","siteZip":"98023","daysofOperation":"M,T,W,TH","lunchTime":"12:30PM – 1:00PM","_geoloc":{"lat":47.2902539,"lng":-122.3356341}},{"siteName":"Glen Park ","siteStatus":"Open","siteState":"WA","siteAddress":"952 Campus Dr Federal Way, Federal Way, WA 98023","siteZip":"98023","daysofOperation":"M,T,W,TH","lunchTime":"11:30AM – 12:00PM","_geoloc":{"lat":47.2902539,"lng":-122.3356341}},{"siteName":"Pavilion","siteStatus":"Open","siteState":"WA","siteAddress":"1900 Campus Dr Federal Way, Federal Way, WA 98023","siteZip":"98023","daysofOperation":"M,T,W,TH","lunchTime":"12:30PM – 1:00PM","_geoloc":{"lat":47.2902539,"lng":-122.3356341}},{"siteName":"View at the Lake ","siteStatus":"Open","siteState":"WA","siteAddress":"30602 Pacific Highway S Federal Way, Federal Way, WA 98003","siteZip":"98003","daysofOperation":"M,T,W,TH","lunchTime":"12:30PM – 1:00PM","_geoloc":{"lat":47.31726399999999,"lng":-122.3153766}},{"siteName":"Good Shepherd Episcopal Church ","siteStatus":"Open","siteState":"WA","siteAddress":"345 312th St Federal Way, Federal Way, WA 98023","siteZip":"98023","daysofOperation":"M,T,W,TH","lunchTime":"12:30PM – 1:00PM","_geoloc":{"lat":47.322831,"lng":-122.335345}},{"siteName":"Kitts Corner","siteStatus":"Open","siteState":"WA","siteAddress":"1201 336th St, Federal Way, WA ","siteZip":"","daysofOperation":"M,T,W,TH","lunchTime":"10:45-11:50am","_geoloc":{}},{"siteName":"Uptown Square Apts","siteStatus":"Open","siteState":"WA","siteAddress":"1066 320th St, Federal Way, WA ","siteZip":"","daysofOperation":"M,T,W,TH","lunchTime":"12:20-1:25pm","_geoloc":{}},{"siteName":"Campus View Apts","siteStatus":"Open","siteState":"WA","siteAddress":"163 340th St, Federal Way, WA 98023","siteZip":"98023","daysofOperation":"M,T,W,TH","lunchTime":"1:55-3:00pm","_geoloc":{"lat":47.297331,"lng":-122.3708943}},{"siteName":"Enchanted Woods","siteStatus":"Open","siteState":"WA","siteAddress":"2020 360th St, Federal Way, WA ","siteZip":"","daysofOperation":"M,T,W,TH","lunchTime":"10:45-11:50am","_geoloc":{}},{"siteName":"Park 16","siteStatus":"Open","siteState":"WA","siteAddress":"35703 16th Ave, Federal Way, WA 98003","siteZip":"98003","daysofOperation":"M,T,W,TH","lunchTime":"12:20-1:25pm","_geoloc":{"lat":47.2840821,"lng":-122.3135264}},{"siteName":"Westway","siteStatus":"Open","siteState":"WA","siteAddress":"33400 21st Ave, Federal Way, WA ","siteZip":"","daysofOperation":"M,T,W,TH","lunchTime":"1:55-3:00pm","_geoloc":{}},{"siteName":"Appian Way","siteStatus":"Open","siteState":"WA","siteAddress":"25818 26th Pl, Federal Way, WA ","siteZip":"","daysofOperation":"M,T,W,TH","lunchTime":"12:20-1:25pm","_geoloc":{}},{"siteName":"Central Office","siteStatus":"Open","siteState":"WA","siteAddress":"15675 Ambaum Blvd, Highline, WA 98166","siteZip":"98166","daysofOperation":"M,T,W,TH","lunchTime":"12:00PM-12:30PM","_geoloc":{"lat":47.462265,"lng":-122.337941}},{"siteName":"SW Boys and Girls Club","siteStatus":"Open","siteState":"WA","siteAddress":"9800 8TH Ave, Highline, WA 98168","siteZip":"98168","daysofOperation":"M,T,W,TH","lunchTime":"8:00AM-9:00AM","_geoloc":{"lat":47.50348229999999,"lng":-122.3225678}},{"siteName":"Para Los Ninos","siteStatus":"Open","siteState":"WA","siteAddress":"425 144th St, Highline, WA ","siteZip":"","daysofOperation":"M,T,W,TH","lunchTime":"11:30AM-12:00PM","_geoloc":{"lat":47.474343,"lng":-122.290999}},{"siteName":"Lake Burien Presbyterian Church","siteStatus":"Open","siteState":"WA","siteAddress":"15003 14th Ave, Highline, WA ","siteZip":"","daysofOperation":"M,T,W,TH","lunchTime":"11:00PM-11:30PM","_geoloc":{"lat":47.50533679999999,"lng":-122.3524618}},{"siteName":"The Alcove at Seathurst Apartments","siteStatus":"Open","siteState":"WA","siteAddress":"14001 Ambaum Blvd SW, Burien (between buildings 2 and 4)","siteZip":"","daysofOperation":"M,T,W,TH","lunchTime":"12:00PM-12:30PM","_geoloc":{}},{"siteName":"Steve Cox Memorial Park","siteStatus":"Open","siteState":"WA","siteAddress":"1321 102nd undefined, Highline, WA ","siteZip":"","daysofOperation":"M,T,W,TH","lunchTime":"12:00PM-12:30PM","_geoloc":{"lat":47.5118921,"lng":-122.3537054}},{"siteName":"Glacier Middle School","siteStatus":"Open","siteState":"WA","siteAddress":"2450 142nd St, Highline, WA 98168","siteZip":"98168","daysofOperation":"M,T,W,TH","lunchTime":"12:00PM-12:30PM","_geoloc":{"lat":47.4761098,"lng":-122.3007665}},{"siteName":"Pacific Middle School","siteStatus":"Open","siteState":"WA","siteAddress":"22705 24th Pl, Highline, WA ","siteZip":"","daysofOperation":"M,T,W,TH","lunchTime":"12:00PM-12:30PM","_geoloc":{}},{"siteName":"White Center Heights ","siteStatus":"Open","siteState":"WA","siteAddress":"10015 6th Ave, Highline, WA ","siteZip":"","daysofOperation":"M,T,W,TH","lunchTime":"12:30PM-1:00PM","_geoloc":{}},{"siteName":"Big Picture Schools","siteStatus":"Open","siteState":"WA","siteAddress":"440 186th St, Highline, WA 98148","siteZip":"98148","daysofOperation":"M,T,W,TH","lunchTime":"11:00-11:30am","_geoloc":{"lat":47.4369812,"lng":-122.3280792}},{"siteName":"Cascade Middle School","siteStatus":"Open","siteState":"WA","siteAddress":"11212 10th Ave, Highline, WA ","siteZip":"","daysofOperation":"M,T,W,TH","lunchTime":"12:00-12:30pm","_geoloc":{}},{"siteName":"Chinook Middle School","siteStatus":"Open","siteState":"WA","siteAddress":"18650 42nd Ave, Highline, WA 98116","siteZip":"98116","daysofOperation":"M,T,W,TH","lunchTime":"7:30-9:00am","_geoloc":{"lat":47.56084,"lng":-122.3849734}},{"siteName":"Evergreen High School","siteStatus":"Open","siteState":"WA","siteAddress":"830 116th St, Highline, WA 98146","siteZip":"98146","daysofOperation":"M,T,W,TH","lunchTime":"7:30-9:00am","_geoloc":{"lat":47.4991428,"lng":-122.3550609}},{"siteName":"Glacier Middle School","siteStatus":"Open","siteState":"WA","siteAddress":"2450 142nd St, Highline, WA 98168","siteZip":"98168","daysofOperation":"M,T,W,TH","lunchTime":"12:00-12:30pm","_geoloc":{"lat":47.4761098,"lng":-122.3007665}},{"siteName":"Highline Public Schools – Central Office","siteStatus":"Open","siteState":"WA","siteAddress":"15676 Ambaum Blvd, Highline, WA 98166","siteZip":"98166","daysofOperation":"M,T,W,TH","lunchTime":"12:00-12:30pm","_geoloc":{"lat":47.462265,"lng":-122.337941}},{"siteName":"Highline High School","siteStatus":"Open","siteState":"WA","siteAddress":"615 200th St, Highline, WA ","siteZip":"","daysofOperation":"M,T,W,TH","lunchTime":"11:00-11:30am","_geoloc":{}},{"siteName":"Madrona Elementary","siteStatus":"Open","siteState":"WA","siteAddress":"20301 32nd Ave, Highline, WA 98198","siteZip":"98198","daysofOperation":"M,T,W,TH","lunchTime":"12:30-1:00pm","_geoloc":{"lat":47.4201549,"lng":-122.2930376}},{"siteName":"McMicken Hts Park ***Starting Tuesday, 3/17","siteStatus":"Open","siteState":"WA","siteAddress":"S 166th St & 40th Ave S, SeaTac","siteZip":"","daysofOperation":"M,T,W,TH","lunchTime":"11:30-12:00pm","_geoloc":{}},{"siteName":"Midway Park","siteStatus":"Open","siteState":"WA","siteAddress":"S 221st St & 29th Ave S, Des Moines","siteZip":"","daysofOperation":"M,T,W,TH","lunchTime":"12:30-1:00pm","_geoloc":{}},{"siteName":"Mount Rainier High School","siteStatus":"Open","siteState":"WA","siteAddress":"22450 19th Ave, Highline, WA ","siteZip":"","daysofOperation":"M,T,W,TH","lunchTime":"11:00-11:30am","_geoloc":{}},{"siteName":"Pacific Middle School","siteStatus":"Open","siteState":"WA","siteAddress":"22705 24th Pl, Highline, WA ","siteZip":"","daysofOperation":"M,T,W,TH","lunchTime":"12:00-12:30pm","_geoloc":{}},{"siteName":"Parkside Elementary","siteStatus":"Open","siteState":"WA","siteAddress":"2104 247th St, Highline, WA ","siteZip":"","daysofOperation":"M,T,W,TH","lunchTime":"12:00-12:30pm","_geoloc":{"lat":47.3805196,"lng":-122.3048246}},{"siteName":"Pine Ridge Apts ***Starting Tuesday, 3/17","siteStatus":"Open","siteState":"WA","siteAddress":"3725 180th St, Highline, WA 98168","siteZip":"98168","daysofOperation":"M,T,W,TH","lunchTime":"1:00-1:30pm","_geoloc":{"lat":47.4734324,"lng":-122.3242911}},{"siteName":"Sylvester Middle School","siteStatus":"Open","siteState":"WA","siteAddress":"16222 Sylvester Rd, Highline, WA 98166","siteZip":"98166","daysofOperation":"M,T,W,TH","lunchTime":"12:00-12:30pm","_geoloc":{"lat":47.4570693,"lng":-122.3398358}},{"siteName":"Tyee High School","siteStatus":"Open","siteState":"WA","siteAddress":"4424 188th St, Highline, WA ","siteZip":"","daysofOperation":"M,T,W,TH","lunchTime":"11:00-11:30pm","_geoloc":{"lat":47.4343996,"lng":-122.2816938}},{"siteName":"White Center Heights Elementary","siteStatus":"Open","siteState":"WA","siteAddress":"10015 6th Ave, Highline, WA ","siteZip":"","daysofOperation":"M,T,W,TH","lunchTime":"12:30-1:00pm","_geoloc":{}},{"siteName":"Willow Lake Apts","siteStatus":"Open","siteState":"WA","siteAddress":"3002 32nd Ave, Highline, WA 98198","siteZip":"98198","daysofOperation":"M,T,W,TH","lunchTime":"11:45am-12:15pm","_geoloc":{"lat":47.4201549,"lng":-122.2930376}},{"siteName":"Windsor Heights Apt ***Starting Tuesday, 3/17","siteStatus":"Open","siteState":"WA","siteAddress":"17229 32nd Ave, Highline, WA 98198","siteZip":"98198","daysofOperation":"M,T,W,TH","lunchTime":"12:15-12:45pm","_geoloc":{"lat":47.4201549,"lng":-122.2930376}},{"siteName":"Carriage Crest Elementary","siteStatus":"Open","siteState":"WA","siteAddress":"18235 140th Ave, Kent, WA ","siteZip":"","daysofOperation":"M,T,W,TH,F","lunchTime":"M,W,F 10:00AM-11:00AM","_geoloc":{}},{"siteName":"Cedar Heights Middle School","siteStatus":"Open","siteState":"WA","siteAddress":"19640 272nd St, Kent, WA ","siteZip":"","daysofOperation":"M,T,W,TH,F","lunchTime":"M,W,F 10:00AM-11:00AM","_geoloc":{"lat":47.3577758,"lng":-122.2920778}},{"siteName":"Covington Elementary","siteStatus":"Open","siteState":"WA","siteAddress":"25811 156th Ave, Kent, WA 98042","siteZip":"98042","daysofOperation":"M,T,W,TH,F","lunchTime":"M,W,F 10:00AM-11:00AM","_geoloc":{"lat":47.366371,"lng":-122.133593}},{"siteName":"Kent Elementary","siteStatus":"Open","siteState":"WA","siteAddress":"24700 64th Ave, Kent, WA 98032","siteZip":"98032","daysofOperation":"M,T,W,TH,F","lunchTime":"M,W,F 10:00AM-11:00AM","_geoloc":{"lat":47.4055258,"lng":-122.2547107}},{"siteName":"Kent-Meridian High School","siteStatus":"Open","siteState":"WA","siteAddress":"10020 256th St, Kent, WA ","siteZip":"","daysofOperation":"M,T,W,TH,F","lunchTime":"M,W,F 10:00AM-11:00AM","_geoloc":{}},{"siteName":"Kentridge High School","siteStatus":"Open","siteState":"WA","siteAddress":"12430 208th St, Kent, WA ","siteZip":"","daysofOperation":"M,T,W,TH,F","lunchTime":"M,W,F 10:00AM-11:00AM","_geoloc":{"lat":47.4158272,"lng":-122.1760204}},{"siteName":"Neely-O’Brien Elementary","siteStatus":"Open","siteState":"WA","siteAddress":"6300 236th St, Kent, WA ","siteZip":"","daysofOperation":"M,T,W,TH,F","lunchTime":"M,W,F 10:00AM-11:00AM","_geoloc":{"lat":47.3900646,"lng":-122.1775933}},{"siteName":"Benson Hill Elementary","siteStatus":"Open","siteState":"WA","siteAddress":"18665 116th Ave, Renton, WA ","siteZip":"","daysofOperation":"M,T,W,TH","lunchTime":"11am-12pm","_geoloc":{}},{"siteName":"Bryn Mawr Elementary","siteStatus":"Open","siteState":"WA","siteAddress":"8212 118th St, Renton, WA ","siteZip":"","daysofOperation":"M,T,W,TH","lunchTime":"11am-12pm","_geoloc":{}},{"siteName":"Campbell Hill Elementary","siteStatus":"Open","siteState":"WA","siteAddress":"6418 124th St, Renton, WA 98058","siteZip":"98058","daysofOperation":"M,T,W,TH","lunchTime":"11am-12pm","_geoloc":{"lat":47.460542,"lng":-122.1734845}},{"siteName":"Cascade Elementary","siteStatus":"Open","siteState":"WA","siteAddress":"16022- 116th Ave, Renton, WA ","siteZip":"","daysofOperation":"M,T,W,TH","lunchTime":"11am-12pm","_geoloc":{}},{"siteName":"Creston Point Apartments","siteStatus":"Open","siteState":"WA","siteAddress":"13445 Martin Luther King Jr Way, Renton, WA ","siteZip":"","daysofOperation":"M,T,W,TH","lunchTime":"11am-12pm","_geoloc":{"lat":47.4817381,"lng":-122.2444703}},{"siteName":"Dimmit Middle School","siteStatus":"Open","siteState":"WA","siteAddress":"12320- 80th Ave, Renton, WA 98059","siteZip":"98059","daysofOperation":"M,T,W,TH","lunchTime":"11am-12pm","_geoloc":{"lat":47.5309433,"lng":-122.1363002}},{"siteName":"Green Tree/ Park Hill Apartments","siteStatus":"Open","siteState":"WA","siteAddress":"6900 125th St, Renton, WA 98058","siteZip":"98058","daysofOperation":"M,T,W,TH","lunchTime":"11am-12pm","_geoloc":{"lat":47.4512866,"lng":-122.1752999}},{"siteName":"Hazelwood Elementary","siteStatus":"Open","siteState":"WA","siteAddress":"7100- 116th Ave, Renton, WA ","siteZip":"","daysofOperation":"M,T,W,TH","lunchTime":"11am-12pm","_geoloc":{}},{"siteName":"Hazen High School","siteStatus":"Open","siteState":"WA","siteAddress":"1101 Hoquiam Ave, Renton, WA ","siteZip":"","daysofOperation":"M,T,W,TH","lunchTime":"11am-12pm","_geoloc":{}},{"siteName":"Highlands Elementary","siteStatus":"Open","siteState":"WA","siteAddress":"2720 7th St, Renton, WA ","siteZip":"","daysofOperation":"M,T,W,TH","lunchTime":"11am-12pm","_geoloc":{"lat":47.4946699,"lng":-122.1665811}},{"siteName":"Honey Dew Elementary","siteStatus":"Open","siteState":"WA","siteAddress":"800 Union Ave, Renton, WA 98057","siteZip":"98057","daysofOperation":"M,T,W,TH","lunchTime":"11am-12pm","_geoloc":{"lat":47.4869893,"lng":-122.2073427}},{"siteName":"Kennydale Elementary","siteStatus":"Open","siteState":"WA","siteAddress":"1700 28th St, Renton, WA ","siteZip":"","daysofOperation":"M,T,W,TH","lunchTime":"11am-12pm","_geoloc":{}},{"siteName":"Lakeridge Elementary","siteStatus":"Open","siteState":"WA","siteAddress":"7400 115th St, Renton, WA ","siteZip":"","daysofOperation":"M,T,W,TH","lunchTime":"11am-12pm","_geoloc":{}},{"siteName":"Lindbergh High School","siteStatus":"Open","siteState":"WA","siteAddress":"16426-128 th Ave, Renton, WA ","siteZip":"","daysofOperation":"M,T,W,TH","lunchTime":"11am-12pm","_geoloc":{"lat":47.4796927,"lng":-122.2079218}},{"siteName":"Maplewood Heights Elementary","siteStatus":"Open","siteState":"WA","siteAddress":"130 Jericho Ave, Renton, WA ","siteZip":"","daysofOperation":"M,T,W,TH","lunchTime":"11am-12pm","_geoloc":{}},{"siteName":"McKnight Middle School","siteStatus":"Open","siteState":"WA","siteAddress":"1200 Edmonds Ave, Renton, WA 98056","siteZip":"98056","daysofOperation":"M,T,W,TH","lunchTime":"11am-12pm","_geoloc":{"lat":47.5046863,"lng":-122.1856056}},{"siteName":"Nelsen Middle School","siteStatus":"Open","siteState":"WA","siteAddress":"2403 Jones Ave, Renton, WA 98055","siteZip":"98055","daysofOperation":"M,T,W,TH","lunchTime":"11am-12pm","_geoloc":{"lat":47.4647897,"lng":-122.1960711}},{"siteName":"Renton High School","siteStatus":"Open","siteState":"WA","siteAddress":"400 2nd St, Renton, WA ","siteZip":"","daysofOperation":"M,T,W,TH","lunchTime":"11am-12pm","_geoloc":{}},{"siteName":"Renton Park Elementary","siteStatus":"Open","siteState":"WA","siteAddress":"16828- 128th Ave, Renton, WA ","siteZip":"","daysofOperation":"M,T,W,TH","lunchTime":"11am-12pm","_geoloc":{}},{"siteName":"Risdon Middle School","siteStatus":"Open","siteState":"WA","siteAddress":"6928 116th Ave, Renton, WA ","siteZip":"","daysofOperation":"M,T,W,TH","lunchTime":"11am-12pm","_geoloc":{}},{"siteName":"Royal Hills Apartments","siteStatus":"Open","siteState":"WA","siteAddress":"3000 Royal Hill Dr, Renton, WA ","siteZip":"","daysofOperation":"M,T,W,TH","lunchTime":"11am-12pm","_geoloc":{"lat":47.4686225,"lng":-122.1792143}},{"siteName":"Sartori Elementary","siteStatus":"Open","siteState":"WA","siteAddress":"332 Park Ave, Renton, WA 98056","siteZip":"98056","daysofOperation":"M,T,W,TH","lunchTime":"11am-12pm","_geoloc":{"lat":47.5068943,"lng":-122.2020264}},{"siteName":"Sierra Heights Elementary","siteStatus":"Open","siteState":"WA","siteAddress":"2501 Union Ave, Renton, WA 98057","siteZip":"98057","daysofOperation":"M,T,W,TH","lunchTime":"11am-12pm","_geoloc":{"lat":47.4869893,"lng":-122.2073427}},{"siteName":"Stonebrook Apartments","siteStatus":"Open","siteState":"WA","siteAddress":"12210 Petrovitsky Rd, Renton, WA ","siteZip":"","daysofOperation":"M,T,W,TH","lunchTime":"11am-12pm","_geoloc":{"lat":47.4462239,"lng":-122.1571875}},{"siteName":"Talbot Hill Elementary","siteStatus":"Open","siteState":"WA","siteAddress":"2300 Talbot Rd, Renton, WA 98055","siteZip":"98055","daysofOperation":"M,T,W,TH","lunchTime":"11am-12pm","_geoloc":{"lat":47.444455,"lng":-122.2114123}},{"siteName":"Talley High School","siteStatus":"Open","siteState":"WA","siteAddress":"7800 132nd St, Renton, WA 98059","siteZip":"98059","daysofOperation":"M,T,W,TH","lunchTime":"11am-12pm","_geoloc":{"lat":47.4846637,"lng":-122.1323695}},{"siteName":"Tiffany Park Elementary","siteStatus":"Open","siteState":"WA","siteAddress":"1601 Lake Youngs Way, Renton, WA 98058","siteZip":"98058","daysofOperation":"M,T,W,TH","lunchTime":"11am-12pm","_geoloc":{"lat":47.4277945,"lng":-122.1448642}},{"siteName":"Creston Point","siteStatus":"Open","siteState":"WA","siteAddress":"13445 Martin Luther King Jr Way, Renton, WA ","siteZip":"","daysofOperation":"M,T,W,TH","lunchTime":"11am-12pm","_geoloc":{"lat":47.4817381,"lng":-122.2444703}},{"siteName":"Green Tree/Park Hill","siteStatus":"Open","siteState":"WA","siteAddress":"6900 125th St, Renton, WA 98058","siteZip":"98058","daysofOperation":"M,T,W,TH","lunchTime":"11am-12pm","_geoloc":{"lat":47.4512866,"lng":-122.1752999}},{"siteName":"Plum Tree Park","siteStatus":"Open","siteState":"WA","siteAddress":"200 5th Pl, Renton, WA ","siteZip":"","daysofOperation":"M,T,W,TH","lunchTime":"11am-12pm","_geoloc":{"lat":47.490592,"lng":-122.154209}},{"siteName":"Dunlap Elementary School","siteStatus":"Open","siteState":"WA","siteAddress":"4525 Cloverdale St, Seattle, WA 98118","siteZip":"98118","daysofOperation":"M,T,W,TH","lunchTime":"11:00am-1:00pm","_geoloc":{"lat":47.52614579999999,"lng":-122.2893301}},{"siteName":"Emerson Elementary School","siteStatus":"Open","siteState":"WA","siteAddress":"9709 60th Ave, Seattle, WA 98118","siteZip":"98118","daysofOperation":"M,T,W,TH","lunchTime":"11:00am-1:00pm","_geoloc":{}},{"siteName":"Franklin High School","siteStatus":"Open","siteState":"WA","siteAddress":"3013 S Mt, Baker Blvd Seattle, WA 98144","siteZip":"98144","daysofOperation":"M,T,W,TH","lunchTime":"11:00am-1:00pm","_geoloc":{"lat":47.458217,"lng":-122.2516543}},{"siteName":"Aki Kurose Middle School","siteStatus":"Open","siteState":"WA","siteAddress":"3928 Graham St, Seattle, WA 98118","siteZip":"98118","daysofOperation":"M,T,W,TH","lunchTime":"11:00am-1:00pm","_geoloc":{}},{"siteName":"Mercer Middle School","siteStatus":"Open","siteState":"WA","siteAddress":"1600 Columbian Way, Seattle, WA 98108","siteZip":"98108","daysofOperation":"M,T,W,TH","lunchTime":"11:00am-1:00pm","_geoloc":{"lat":47.56414729999999,"lng":-122.3134974}},{"siteName":"Rainier Beach High School","siteStatus":"Open","siteState":"WA","siteAddress":"8815 Seward Park Ave, Seattle, WA 98118","siteZip":"98118","daysofOperation":"M,T,W,TH","lunchTime":"11:00am-1:00pm","_geoloc":{"lat":47.5502603,"lng":-122.26485}},{"siteName":"Rainier View Elementary School","siteStatus":"Open","siteState":"WA","siteAddress":"11650 Beacon Ave, Seattle, WA 98178","siteZip":"98178","daysofOperation":"M,T,W,TH","lunchTime":"11:00am-1:00pm","_geoloc":{"lat":47.552585,"lng":-122.300937}},{"siteName":"Rising Star @ African American Academy (Formerly Van Asselt Elementary)","siteStatus":"Open","siteState":"WA","siteAddress":"8311 Beacon Ave, Seattle, WA 98118","siteZip":"98118","daysofOperation":"M,T,W,TH","lunchTime":"11:00am-1:00pm","_geoloc":{"lat":47.552585,"lng":-122.300937}},